IDCaso,IDCasoRelacionado,Año,Mes,Día,CódigoDANEdeMunicipio,Municipio,Departamento,Región,Modalidad,PresuntoResponsable,DescripciónPresuntoResponsable,AbandonooDespojoForzadodeTi,AmenazaoIntimidación,AtaqueContraMisiónMédica,ConfinamientooRestricciónala,DesplazamientoForzado,Extorsión,LesionadosCiviles,Pillaje,Tortura,ViolenciaBasadaenGénero,OtroHechoSimultáneo,TotaldeVíctimasdelCaso,ModalidaddeSecuestro,TipodeSecuestro,FinalidaddelSecuestro,ExigenciaparalaLiberación,Latitud,Longitud,IDPersona,Sexo,Etnia,Ocupación,CalidaddelaVíctimaolaBaja,TipodePoblaciónVulnerable,MilitantePolítico,FuerzaoGrupoArmadoOrganizado,DescripciónFuerzaoGrupoArmad,SituaciónActualdelaVíctima,CircunstanciaMuerteenCautiver,TipodeLiberación,DíasdeCautiverio,NodeVecessecuestrado,Edad,GAULA,_merge,Fecha,añomes,Y_Resultado,Grupo_Responsable,Perfil_Victima,Zona_Geografica,Modus_Operandi,Estructura_Secuestro,Intervencion_GAULA,Sexo_Victima,Duracion_Categ,Municipio_Num,ln_TotalVictimas,Periodo_Historico,_st,_d,_t,_t0,Muerte_Pct,Muerte_Dummy,_est_A,_est_B
66221,,2012,3,23,5480,MUTATA,ANTIOQUIA,URABA,INTERCEPTACIÓN,AGENTE DEL ESTADO - GRUPO POSDESMOVILIZACIÓN,NO APLICA,0,1,0,0,1,0,0,0,2,,,2,COLECTIVO,EXTORSIVO,ECONÓMICA,,7.329557848,-76.463065695,114093,HOMBRE,"NEGRO(A), MULATO(A), AFRODESCENDIENTE, AFROCOLOMBIANO(A)",SIN INFORMACIÓN,CIVIL,FAMILIAR DE PERSONA VULNERABLE,,,,MUERTO EN CAUTIVERIO,,PAGO,1.0,1,ADOLESCENCIA (12-17 AÑOS),No_GAULA,Matched (3),23mar2012,2012m3,Muerte,Delincuencia/Otro,Desconocido,Andina,Ataque Directo,Grupal,No Intervención,Hombre,Exprés (<=2d),MUTATA,0.69314718,Paz/Actual,1,1.0,1.0,0.0,100,1,1,0
66221,,2012,3,23,5480,MUTATA,ANTIOQUIA,URABA,INTERCEPTACIÓN,AGENTE DEL ESTADO - GRUPO POSDESMOVILIZACIÓN,NO APLICA,0,1,0,0,1,0,0,0,2,,,2,COLECTIVO,EXTORSIVO,ECONÓMICA,,7.329557848,-76.463065695,114092,HOMBRE,"NEGRO(A), MULATO(A), AFRODESCENDIENTE, AFROCOLOMBIANO(A)",SIN INFORMACIÓN,CIVIL,RECLAMANTE DE TIERRAS,,,,MUERTO EN CAUTIVERIO,,PAGO,1.0,1,ADULTEZ (29-59 AÑOS),No_GAULA,Matched (3),23mar2012,2012m3,Muerte,Delincuencia/Otro,Desconocido,Andina,Ataque Directo,Grupal,No Intervención,Hombre,Exprés (<=2d),MUTATA,0.69314718,Paz/Actual,1,1.0,1.0,0.0,100,1,1,0
104360,,2006,12,21,41668,SAN AGUSTIN,HUILA,MACIZO COLOMBIANO,DESCONOCIDA,GUERRILLA,NO IDENTIFICADA,0,0,0,0,0,0,0,0,0,,,1,INDIVIDUAL,EXTORSIVO,ECONÓMICA,,1.924165493,-76.416565503,110185,HOMBRE,,CONDUCTOR/MOTORISTA,CIVIL,LÍDER COMUNITARIO,,,,MUERTO EN CAUTIVERIO,,PAGO,33.0,2,,No_GAULA,Matched (3),21dec2006,2006m12,Muerte,Delincuencia/Otro,Vulnerable,Andina,Desconocido,Individual,No Intervención,Hombre,Largo (>1m),SAN AGUSTIN,0.0,Seg. Democrática,1,1.0,33.0,0.0,100,1,1,0
230407,,1996,4,11,19455,MIRANDA,CAUCA,NORTE DEL CAUCA,DESCONOCIDA,GUERRILLA,FARC,0,1,0,0,1,1,0,0,0,,,1,INDIVIDUAL,EXTORSIVO,ECONÓMICA,,3.228235212,-76.216708274,251682,HOMBRE,,PROFESIONAL,CIVIL,EXALCALDE,LIBERAL,,,LIBERADO,,POR PRESIÓN/INTERMEDIACIÓN,730.0,1,,No_GAULA,Matched (3),11apr1996,1996m4,Fuga o Liberación,FARC,Clase Media,Pacífico/Roja,Desconocido,Individual,No Intervención,Hombre,Largo (>1m),MIRANDA,0.0,Ascenso,1,0.0,730.0,0.0,0,0,1,1
260614,CR2017426968,2002,8,22,20011,AGUACHICA,CESAR,MAGDALENA MEDIO,DESCONOCIDA,GRUPO PARAMILITAR,AUTODEFENSAS UNIDAS DE COLOMBIA AUC,0,1,0,0,0,0,0,0,0,,,1,INDIVIDUAL,EXTORSIVO,OTRA,,8.248735219,-73.6227405,469617,HOMBRE,,SIN INFORMACIÓN,CIVIL,,,,,LIBERADO,,RESCATE,,0,,No_GAULA,Matched (3),22aug2002,2002m8,Rescate,Paramilitares,Desconocido,Caribe,Desconocido,Individual,No Intervención,Hombre,Sin Dato,AGUACHICA,0.0,Crisis/Caguán,0,,,,0,0,1,1
292363,,2002,4,11,76001,SANTIAGO DE CALI,VALLE DEL CAUCA,SUR DEL VALLE,INCURSIÓN,GUERRILLA,FARC,0,0,0,0,0,0,0,0,0,,,12,COLECTIVO,EXTORSIVO,POLÍTICA,,3.399043723,-76.576492589,385756,HOMBRE,,SIN INFORMACIÓN,CIVIL,DIPUTADO,LIBERAL,,,LIBERADO,,POR PRESIÓN/INTERMEDIACIÓN,2489.0,1,ADULTEZ (29-59 AÑOS),GAULA,Matched (3),11apr2002,2002m4,Fuga o Liberación,FARC,Desconocido,Metrópolis,Incursión Militar,Grupal,Intervención GAULA,Hombre,Largo (>1m),SANTIAGO DE CALI,2.4849067,Crisis/Caguán,1,0.0,2489.0,0.0,0,0,1,1
319825,CR018900,1986,10,3,11001,"BOGOTA, D.C.","BOGOTA, D. C.",AREA METROPOLITANA DE BOGOTA,INTERCEPTACIÓN,GUERRILLA,M19,0,0,0,0,0,0,0,0,0,,,1,INDIVIDUAL,EXTORSIVO,ECONÓMICA,,4.316107698,-74.181072702,361257,HOMBRE,,EMPRESARIO - INDUSTRIAL,CIVIL,,,,,LIBERADO,,RESCATE,17.0,1,,No_GAULA,Matched (3),03oct1986,1986m10,Rescate,Delincuencia/Otro,Alto ($$$),Metrópolis,Ataque Directo,Individual,No Intervención,Hombre,Corto (1m),"BOGOTA, D.C.",0.0,Ascenso,1,0.0,17.0,0.0,0,0,1,1
319826,,1978,3,25,11001,"BOGOTA, D.C.","BOGOTA, D. C.",AREA METROPOLITANA DE BOGOTA,DESCONOCIDA,GUERRILLA,M19,0,0,0,0,0,0,0,0,0,,,1,INDIVIDUAL,EXTORSIVO,ECONÓMICA,,4.316107698,-74.181072702,361258,HOMBRE,,EMPLEADO,CIVIL,EXDIPUTADO,,,,LIBERADO,,PAGO,,1,,No_GAULA,Matched (3),25mar1978,1978m3,Pago,Delincuencia/Otro,Clase Media,Metrópolis,Desconocido,Individual,No Intervención,Hombre,Sin Dato,"BOGOTA, D.C.",0.0,Ascenso,0,,,,0,0,1,1
319838,,1975,8,5,11001,"BOGOTA, D.C.","BOGOTA, D. C.",AREA METROPOLITANA DE BOGOTA,DESCONOCIDA,GUERRILLA,M19,0,0,0,0,0,0,0,0,0,,,1,INDIVIDUAL,EXTORSIVO,ECONÓMICA,,4.650173,-74.107359,361270,HOMBRE,,EMPRESARIO - INDUSTRIAL,CIVIL,,,,,LIBERADO,,RESCATE,,0,,No_GAULA,Matched (3),05aug1975,1975m8,Rescate,Delincuencia/Otro,Alto ($$$),Metrópolis,Desconocido,Individual,No Intervención,Hombre,Sin Dato,"BOGOTA, D.C.",0.0,Ascenso,0,,,,0,0,1,1
319840,CR2017319840,1977,8,19,11001,"BOGOTA, D.C.","BOGOTA, D. C.",AREA METROPOLITANA DE BOGOTA,ASALTO,GUERRILLA,M19,0,0,0,0,0,0,0,0,0,,,1,INDIVIDUAL,EXTORSIVO,POLÍTICA,,4.316107698,-74.181072702,361272,HOMBRE,,EMPRESARIO - INDUSTRIAL,CIVIL,EXMINISTRO,,,,LIBERADO,,POR PRESIÓN/INTERMEDIACIÓN,5.0,1,,No_GAULA,Matched (3),19aug1977,1977m8,Fuga o Liberación,Delincuencia/Otro,Alto ($$$),Metrópolis,Ataque Directo,Individual,No Intervención,Hombre,Corto (1m),"BOGOTA, D.C.",0.0,Ascenso,1,0.0,5.0,0.0,0,0,1,1
320132,,1993,7,29,54498,OCAÑA,NORTE DE SANTANDER,CATATUMBO,DESCONOCIDA,GUERRILLA,DISIDENCIA EPL,0,1,0,0,0,0,0,0,0,,,1,INDIVIDUAL,EXTORSIVO,ECONÓMICA,,8.206637527,-73.337650332,361564,HOMBRE,,COMERCIANTE,CIVIL,,,,,LIBERADO,,PAGO,30.0,1,ADULTEZ (29-59 AÑOS),No_GAULA,Matched (3),29jul1993,1993m7,Pago,Delincuencia/Otro,Alto ($$$),Pacífico/Roja,Desconocido,Individual,No Intervención,Hombre,Corto (1m),OCAÑA,0.0,Ascenso,1,0.0,30.0,0.0,0,0,1,1
320145,,2005,7,12,81300,FORTUL,ARAUCA,SARARE,ENGAÑO,GUERRILLA,ELN,0,0,0,0,0,0,0,0,0,,,1,INDIVIDUAL,EXTORSIVO,ECONÓMICA,,6.750907234,-71.791242408,361577,HOMBRE,,TRABAJADOR DE FINCA,CIVIL,,,,,LIBERADO,,PAGO,12.0,1,,No_GAULA,Matched (3),12jul2005,2005m7,Pago,ELN,Vulnerable,Oriente/Selva,Engaño,Individual,No Intervención,Hombre,Corto (1m),FORTUL,0.0,Seg. Democrática,1,0.0,12.0,0.0,0,0,1,1
320161,,2002,12,19,86568,PUERTO ASIS,PUTUMAYO,BAJO PUTUMAYO,ASALTO,GRUPO PARAMILITAR,NO IDENTIFICADO,0,0,0,0,0,0,0,0,0,,,1,INDIVIDUAL,EXTORSIVO,ECONÓMICA,,0.433884539,-76.521582034,762911,HOMBRE,,CONDUCTOR/MOTORISTA,CIVIL,,,,,LIBERADO,,PAGO,7.0,1,,No_GAULA,Matched (3),19dec2002,2002m12,Pago,Paramilitares,Vulnerable,Oriente/Selva,Ataque Directo,Individual,No Intervención,Hombre,Corto (1m),PUERTO ASIS,0.0,Crisis/Caguán,1,0.0,7.0,0.0,0,0,1,1
320176,,1991,9,13,20178,CHIRIGUANA,CESAR,SERRANIA DEL PERIJA,DESCONOCIDA,GUERRILLA,ELN,0,0,0,0,0,0,0,0,0,,,1,INDIVIDUAL,EXTORSIVO,ECONÓMICA,,9.426648354,-73.547978944,361608,HOMBRE,,SIN INFORMACIÓN,CIVIL,,,,,LIBERADO,,PAGO,18.0,2,PERSONA MAYOR (60 AÑOS O MAS),No_GAULA,Matched (3),13sep1991,1991m9,Pago,ELN,Desconocido,Caribe,Desconocido,Individual,No Intervención,Hombre,Corto (1m),CHIRIGUANA,0.0,Ascenso,1,0.0,18.0,0.0,0,0,1,1
320223,,1965,1,12,15000,SIN INFORMACION,BOYACA,,DESCONOCIDA,BANDOLERISMO,NO IDENTIFICADO,0,0,0,0,0,0,0,0,0,,,2,MÚLTIPLE,EXTORSIVO,ECONÓMICA,,7.011836379,-71.9813383372,361656,HOMBRE,,SIN INFORMACIÓN,CIVIL,,,,,LIBERADO,,FUGA,1.0,1,,No_GAULA,Matched (3),12jan1965,1965m1,Fuga o Liberación,Delincuencia/Otro,Desconocido,Andina,Desconocido,Grupal,No Intervención,Hombre,Exprés (<=2d),SIN INFORMACION,0.69314718,Ascenso,1,0.0,1.0,0.0,0,0,1,1
320223,,1965,1,12,15000,SIN INFORMACION,BOYACA,,DESCONOCIDA,BANDOLERISMO,NO IDENTIFICADO,0,0,0,0,0,0,0,0,0,,,2,MÚLTIPLE,EXTORSIVO,ECONÓMICA,,7.011836379,-71.9813383372,361655,HOMBRE,,SIN INFORMACIÓN,CIVIL,,,,,LIBERADO,,FUGA,1.0,1,,No_GAULA,Matched (3),12jan1965,1965m1,Fuga o Liberación,Delincuencia/Otro,Desconocido,Andina,Desconocido,Grupal,No Intervención,Hombre,Exprés (<=2d),SIN INFORMACION,0.69314718,Ascenso,1,0.0,1.0,0.0,0,0,1,1
320230,,1971,2,25,68190,CIMITARRA,SANTANDER,MAGDALENA MEDIO,INTERCEPTACIÓN,GUERRILLA,ELN,0,0,0,0,0,1,0,1,0,,,8,COLECTIVO,EXTORSIVO,ECONÓMICA - POLÍTICA,,6.40972961,-74.170304269,361665,HOMBRE,,PROFESIONAL,CIVIL,,,,,LIBERADO,,RESCATE,,1,,No_GAULA,Matched (3),25feb1971,1971m2,Rescate,ELN,Clase Media,Andina,Ataque Directo,Grupal,No Intervención,Hombre,Sin Dato,CIMITARRA,2.0794415,Ascenso,0,,,,0,0,1,1
320230,,1971,2,25,68190,CIMITARRA,SANTANDER,MAGDALENA MEDIO,INTERCEPTACIÓN,GUERRILLA,ELN,0,0,0,0,0,1,0,1,0,,,8,COLECTIVO,EXTORSIVO,ECONÓMICA - POLÍTICA,,6.40972961,-74.170304269,361662,HOMBRE,,FUNCIONARIO PÚBLICO,CIVIL,,,,,LIBERADO,,RESCATE,,1,,No_GAULA,Matched (3),25feb1971,1971m2,Rescate,ELN,Sector Público,Andina,Ataque Directo,Grupal,No Intervención,Hombre,Sin Dato,CIMITARRA,2.0794415,Ascenso,0,,,,0,0,1,1
320230,,1971,2,25,68190,CIMITARRA,SANTANDER,MAGDALENA MEDIO,INTERCEPTACIÓN,GUERRILLA,ELN,0,0,0,0,0,1,0,1,0,,,8,COLECTIVO,EXTORSIVO,ECONÓMICA - POLÍTICA,,6.40972961,-74.170304269,361667,HOMBRE,,PROFESIONAL,CIVIL,,,,,LIBERADO,,RESCATE,,1,,No_GAULA,Matched (3),25feb1971,1971m2,Rescate,ELN,Clase Media,Andina,Ataque Directo,Grupal,No Intervención,Hombre,Sin Dato,CIMITARRA,2.0794415,Ascenso,0,,,,0,0,1,1
320230,,1971,2,25,68190,CIMITARRA,SANTANDER,MAGDALENA MEDIO,INTERCEPTACIÓN,GUERRILLA,ELN,0,0,0,0,0,1,0,1,0,,,8,COLECTIVO,EXTORSIVO,ECONÓMICA - POLÍTICA,,6.40972961,-74.170304269,361666,HOMBRE,,PROFESIONAL,CIVIL,,,,,LIBERADO,,RESCATE,,1,,No_GAULA,Matched (3),25feb1971,1971m2,Rescate,ELN,Clase Media,Andina,Ataque Directo,Grupal,No Intervención,Hombre,Sin Dato,CIMITARRA,2.0794415,Ascenso,0,,,,0,0,1,1
320230,,1971,2,25,68190,CIMITARRA,SANTANDER,MAGDALENA MEDIO,INTERCEPTACIÓN,GUERRILLA,ELN,0,0,0,0,0,1,0,1,0,,,8,COLECTIVO,EXTORSIVO,ECONÓMICA - POLÍTICA,,6.40972961,-74.170304269,361664,HOMBRE,,PROFESIONAL,CIVIL,,,,,LIBERADO,,RESCATE,,1,,No_GAULA,Matched (3),25feb1971,1971m2,Rescate,ELN,Clase Media,Andina,Ataque Directo,Grupal,No Intervención,Hombre,Sin Dato,CIMITARRA,2.0794415,Ascenso,0,,,,0,0,1,1
320230,,1971,2,25,68190,CIMITARRA,SANTANDER,MAGDALENA MEDIO,INTERCEPTACIÓN,GUERRILLA,ELN,0,0,0,0,0,1,0,1,0,,,8,COLECTIVO,EXTORSIVO,ECONÓMICA - POLÍTICA,,6.40972961,-74.170304269,361668,HOMBRE,,CONDUCTOR/MOTORISTA,CIVIL,,,,,LIBERADO,,RESCATE,,1,,No_GAULA,Matched (3),25feb1971,1971m2,Rescate,ELN,Vulnerable,Andina,Ataque Directo,Grupal,No Intervención,Hombre,Sin Dato,CIMITARRA,2.0794415,Ascenso,0,,,,0,0,1,1
320243,,1994,6,7,68573,PUERTO PARRA,SANTANDER,MAGDALENA MEDIO,DESCONOCIDA,GUERRILLA,NO IDENTIFICADA,0,0,0,0,0,0,0,0,0,,,1,INDIVIDUAL,EXTORSIVO,ECONÓMICA,,6.685278856,-73.957612558,361675,HOMBRE,,TRABAJADOR DE FINCA,CIVIL,,,,,LIBERADO,,PAGO,15.0,1,PERSONA MAYOR (60 AÑOS O MAS),No_GAULA,Matched (3),07jun1994,1994m6,Pago,Delincuencia/Otro,Vulnerable,Andina,Desconocido,Individual,No Intervención,Hombre,Corto (1m),PUERTO PARRA,0.0,Ascenso,1,0.0,15.0,0.0,0,0,1,1
320422,,1976,12,31,11001,"BOGOTA, D.C.","BOGOTA, D. C.",AREA METROPOLITANA DE BOGOTA,ASALTO,GRUPO ARMADO NO IDENTIFICADO,NO APLICA,0,0,0,0,0,0,0,0,0,,,1,INDIVIDUAL,EXTORSIVO,ECONÓMICA,,4.316107698,-74.181072702,361854,MUJER,,SIN INFORMACIÓN,CIVIL,,,,,LIBERADO,,CANJE - PAGO,16.0,0,,No_GAULA,Matched (3),31dec1976,1976m12,Pago,Delincuencia/Otro,Desconocido,Metrópolis,Ataque Directo,Individual,No Intervención,Mujer,Corto (1m),"BOGOTA, D.C.",0.0,Ascenso,1,0.0,16.0,0.0,0,0,1,1
320443,,1977,8,26,0,SIN INFORMACION,SIN INFORMACION,SIN INFORMACION,DESCONOCIDA,GUERRILLA,FARC,0,0,0,0,0,0,0,0,0,,,1,INDIVIDUAL,EXTORSIVO,ECONÓMICA,,4.0,-72.0,361875,HOMBRE,,PROFESIONAL,CIVIL,,,,,LIBERADO,,PAGO,11.0,0,,No_GAULA,Matched (3),26aug1977,1977m8,Pago,FARC,Clase Media,Sin región,Desconocido,Individual,No Intervención,Hombre,Corto (1m),SIN INFORMACION,0.0,Ascenso,1,0.0,11.0,0.0,0,0,0,0
320449,,1977,2,10,11001,"BOGOTA, D.C.","BOGOTA, D. C.",AREA METROPOLITANA DE BOGOTA,INTERCEPTACIÓN,DESCONOCIDO,NO APLICA,0,0,0,0,0,0,0,0,0,,,1,INDIVIDUAL,EXTORSIVO,ECONÓMICA,,4.316107698,-74.181072702,361881,HOMBRE,,NO APLICA,CIVIL,FAMILIAR DE COMBATIENTE,,,,LIBERADO,,PAGO,21.0,0,INFANCIA (6-11 AÑOS),No_GAULA,Matched (3),10feb1977,1977m2,Pago,Delincuencia/Otro,Desconocido,Metrópolis,Ataque Directo,Individual,No Intervención,Hombre,Corto (1m),"BOGOTA, D.C.",0.0,Ascenso,1,0.0,21.0,0.0,0,0,1,1
320549,CR010087,2002,6,26,18860,VALPARAISO,CAQUETA,FLORENCIA Y AREA DE INFLUENCIA,ASALTO,GRUPO PARAMILITAR,AUTODEFENSAS UNIDAS DE COLOMBIA AUC,0,0,0,0,0,0,0,1,1,,,1,MÚLTIPLE,EXTORSIVO,ECONÓMICA,,1.07534915,-75.737790038,361981,HOMBRE,,SIN INFORMACIÓN,CIVIL,,,,,LIBERADO,,CANJE,1.0,0,,No_GAULA,Matched (3),26jun2002,2002m6,Pago,Paramilitares,Desconocido,Oriente/Selva,Ataque Directo,Grupal,No Intervención,Hombre,Exprés (<=2d),VALPARAISO,0.0,Crisis/Caguán,1,0.0,1.0,0.0,0,0,1,1
320682,,1981,11,17,11001,"BOGOTA, D.C.","BOGOTA, D. C.",AREA METROPOLITANA DE BOGOTA,INTERCEPTACIÓN,GUERRILLA,EPL,0,0,0,0,0,0,0,0,0,,,1,INDIVIDUAL,EXTORSIVO,ECONÓMICA,,4.316107698,-74.181072702,362114,HOMBRE,,COMERCIANTE,CIVIL,,,,,LIBERADO,,PAGO,90.0,1,,No_GAULA,Matched (3),17nov1981,1981m11,Pago,Delincuencia/Otro,Alto ($$$),Metrópolis,Ataque Directo,Individual,No Intervención,Hombre,Largo (>1m),"BOGOTA, D.C.",0.0,Ascenso,1,0.0,90.0,0.0,0,0,1,1
320705,,2008,6,26,EXVEN,FRONTERA VENEZUELA,EXTERIOR,,ASALTO,GUERRILLA,OTRA,0,0,0,0,0,0,0,0,0,,,2,MÚLTIPLE,EXTORSIVO,ECONÓMICA,,9.1,-72.73,362137,MUJER,,SIN INFORMACIÓN,CIVIL,,,,,LIBERADO,,RESCATE,127.0,1,,No_GAULA,Matched (3),26jun2008,2008m6,Rescate,Delincuencia/Otro,Desconocido,Sin región,Ataque Directo,Grupal,No Intervención,Mujer,Largo (>1m),FRONTERA VENEZUELA,0.69314718,Seg. Democrática,1,0.0,127.0,0.0,0,0,0,0
320802,,1987,7,13,18410,LA MONTAÑITA,CAQUETA,FLORENCIA Y AREA DE INFLUENCIA,DESCONOCIDA,GUERRILLA,FARC,1,1,0,0,1,0,0,0,0,,,1,INDIVIDUAL,EXTORSIVO,ECONÓMICA,,1.302860442,-75.235727319,362234,MUJER,,SIN INFORMACIÓN,CIVIL,,,,,LIBERADO,,PAGO,35.0,0,,No_GAULA,Matched (3),13jul1987,1987m7,Pago,FARC,Desconocido,Oriente/Selva,Desconocido,Individual,No Intervención,Mujer,Largo (>1m),LA MONTAÑITA,0.0,Ascenso,1,0.0,35.0,0.0,0,0,1,1
320803,,1987,11,11,86749,SIBUNDOY,PUTUMAYO,ALTO PUTUMAYO,ASALTO,GUERRILLA,FARC,0,0,0,0,0,0,0,0,0,,,1,INDIVIDUAL,EXTORSIVO,ECONÓMICA,,1.228746922,-76.913075854,362235,HOMBRE,,SIN INFORMACIÓN,CIVIL,,,,,LIBERADO,,PAGO,50.0,1,,No_GAULA,Matched (3),11nov1987,1987m11,Pago,FARC,Desconocido,Oriente/Selva,Ataque Directo,Individual,No Intervención,Hombre,Largo (>1m),SIBUNDOY,0.0,Ascenso,1,0.0,50.0,0.0,0,0,1,1
320854,,1999,6,19,68615,RIONEGRO,SANTANDER,MAGDALENA MEDIO,ASALTO,GUERRILLA,DISIDENCIA EPL,0,0,0,0,0,0,0,0,0,,,1,INDIVIDUAL,EXTORSIVO,ECONÓMICA,,7.474226085,-73.372464172,362286,HOMBRE,,TRABAJADOR DE FINCA,CIVIL,,,,,MUERTO EN CAUTIVERIO,,PAGO,3.0,1,ADULTEZ (29-59 AÑOS),No_GAULA,Matched (3),19jun1999,1999m6,Muerte,Delincuencia/Otro,Vulnerable,Andina,Ataque Directo,Individual,No Intervención,Hombre,Corto (1m),RIONEGRO,0.0,Crisis/Caguán,1,1.0,3.0,0.0,100,1,1,0
320867,,2000,6,8,18205,CURILLO,CAQUETA,FLORENCIA Y AREA DE INFLUENCIA,DESCONOCIDA,GRUPO PARAMILITAR,NO IDENTIFICADO,0,0,0,0,0,0,0,0,0,,,1,INDIVIDUAL,EXTORSIVO,ECONÓMICA,,1.115379292,-75.973284517,362299,MUJER,,ESTUDIANTE,CIVIL,,,,,MUERTO EN CAUTIVERIO,,PAGO,,0,PRIMERA INFANCIA (0-5 AÑOS),No_GAULA,Matched (3),08jun2000,2000m6,Muerte,Paramilitares,Clase Media,Oriente/Selva,Desconocido,Individual,No Intervención,Mujer,Sin Dato,CURILLO,0.0,Crisis/Caguán,0,,,,100,1,1,0
320868,,2000,7,2,50689,SAN MARTIN,META,PIEDEMONTE LLANERO,ASALTO,GRUPO PARAMILITAR,AUTODEFENSAS UNIDAS DE COLOMBIA AUC,0,1,0,0,0,0,0,0,1,,,1,INDIVIDUAL,EXTORSIVO,PRESTAR UN SERVICIO,,3.515860962,-72.656727424,362300,HOMBRE,,OTRA,CIVIL,,,,,LIBERADO,,FUGA,123.0,1,,No_GAULA,Matched (3),02jul2000,2000m7,Fuga o Liberación,Paramilitares,Desconocido,Oriente/Selva,Ataque Directo,Individual,No Intervención,Hombre,Largo (>1m),SAN MARTIN,0.0,Crisis/Caguán,1,0.0,123.0,0.0,0,0,1,1
320951,,2004,5,1,15690,SANTA MARIA,BOYACA,ALTIPLANO CUNDIBOYACENSE,ENGAÑO,GRUPO PARAMILITAR,NO IDENTIFICADO,0,0,0,0,0,0,0,0,0,,,1,INDIVIDUAL,EXTORSIVO,ECONÓMICA,,4.823002556,-73.253775062,362383,HOMBRE,,TRABAJADOR DE FINCA,CIVIL,,,,,LIBERADO,,PAGO,15.0,0,ADULTEZ (29-59 AÑOS),No_GAULA,Matched (3),01may2004,2004m5,Pago,Paramilitares,Vulnerable,Andina,Engaño,Individual,No Intervención,Hombre,Corto (1m),SANTA MARIA,0.0,Seg. Democrática,1,0.0,15.0,0.0,0,0,1,1
320955,,2004,9,23,81794,TAME,ARAUCA,SARARE,DESCONOCIDA,GUERRILLA,FARC,1,1,0,0,0,0,0,1,0,,,1,INDIVIDUAL,EXTORSIVO,ECONÓMICA,,6.390650479,-71.791786468,362387,HOMBRE,,SIN INFORMACIÓN,CIVIL,,,,,LIBERADO,,PAGO,2.0,0,,No_GAULA,Matched (3),23sep2004,2004m9,Pago,FARC,Desconocido,Oriente/Selva,Desconocido,Individual,No Intervención,Hombre,Exprés (<=2d),TAME,0.0,Seg. Democrática,1,0.0,2.0,0.0,0,0,1,1
321056,,1998,10,29,5679,SANTA BARBARA,ANTIOQUIA,SUROESTE ANTIOQUEÑO,INTERCEPTACIÓN,DESCONOCIDO,NO APLICA,0,0,0,0,0,1,0,0,0,,,1,INDIVIDUAL,EXTORSIVO,ECONÓMICA,,5.878984956,-75.583303711,362488,HOMBRE,,SIN INFORMACIÓN,CIVIL,,,,,MUERTO EN CAUTIVERIO,,PAGO,,0,ADULTEZ (29-59 AÑOS),No_GAULA,Matched (3),29oct1998,1998m10,Muerte,Delincuencia/Otro,Desconocido,Andina,Ataque Directo,Individual,No Intervención,Hombre,Sin Dato,SANTA BARBARA,0.0,Crisis/Caguán,0,,,,100,1,1,0
321104,,2016,8,26,81001,ARAUCA,ARAUCA,LLANOS ORIENTALES,CANJE/INTERCAMBIO,GUERRILLA,ELN,0,0,0,0,0,0,0,0,0,,,1,INDIVIDUAL,EXTORSIVO,ECONÓMICA,,6.796280825,-70.509211529,362536,HOMBRE,,CAMPESINO,CIVIL,,,,,LIBERADO,,POR PRESIÓN/INTERMEDIACIÓN,34.0,0,JUVENTUD (18-28 AÑOS),GAULA,Matched (3),26aug2016,2016m8,Fuga o Liberación,ELN,Vulnerable,Oriente/Selva,Engaño,Individual,Intervención GAULA,Hombre,Largo (>1m),ARAUCA,0.0,Paz/Actual,1,0.0,34.0,0.0,0,0,1,1
321105,,2016,7,24,81001,ARAUCA,ARAUCA,LLANOS ORIENTALES,DESCONOCIDA,GUERRILLA,ELN,0,0,0,0,0,0,0,0,0,,,1,INDIVIDUAL,EXTORSIVO,ECONÓMICA,,6.796280825,-70.509211529,362537,HOMBRE,,CAMPESINO,CIVIL,,,,,LIBERADO,,CANJE,33.0,0,ADULTEZ (29-59 AÑOS),GAULA,Matched (3),24jul2016,2016m7,Pago,ELN,Vulnerable,Oriente/Selva,Desconocido,Individual,Intervención GAULA,Hombre,Largo (>1m),ARAUCA,0.0,Paz/Actual,1,0.0,33.0,0.0,0,0,1,1
321140,,2005,12,19,52411,LINARES,NARIÑO,CENTRO OCCIDENTE DE NARIÑO,DESCONOCIDA,GUERRILLA,ELN,0,0,0,0,0,0,0,0,0,,,1,INDIVIDUAL,EXTORSIVO,ECONÓMICA,,1.395173084,-77.520937738,362572,MUJER,,SIN INFORMACIÓN,CIVIL,,,,,LIBERADO,,PAGO,,0,,No_GAULA,Matched (3),19dec2005,2005m12,Pago,ELN,Desconocido,Sin región,Desconocido,Individual,No Intervención,Mujer,Sin Dato,LINARES,0.0,Seg. Democrática,0,,,,0,0,1,1
321151,,2000,12,7,52356,IPIALES,NARIÑO,SUR DE NARIÑO,DESCONOCIDA,GRUPO PARAMILITAR,NO IDENTIFICADO,0,0,0,0,0,1,0,0,0,,,1,INDIVIDUAL,EXTORSIVO,OTRA,,0.497708465,-77.240476252,362583,HOMBRE,,SIN INFORMACIÓN,CIVIL,,,,,LIBERADO,,CANJE - PAGO,11.0,1,ADULTEZ (29-59 AÑOS),No_GAULA,Matched (3),07dec2000,2000m12,Pago,Paramilitares,Desconocido,Sin región,Desconocido,Individual,No Intervención,Hombre,Corto (1m),IPIALES,0.0,Crisis/Caguán,1,0.0,11.0,0.0,0,0,1,1
321181,,1965,1,23,76497,OBANDO,VALLE DEL CAUCA,NORTE DEL VALLE,ASALTO,BANDOLERISMO,BANDOLERISMO LIBERAL,0,0,0,0,0,0,0,0,0,,,1,INDIVIDUAL,EXTORSIVO,ECONÓMICA,,4.597588666,-75.949199698,362613,HOMBRE,,GANADERO/HACENDADO,CIVIL,,,,,LIBERADO,,PAGO,10.0,0,,No_GAULA,Matched (3),23jan1965,1965m1,Pago,Delincuencia/Otro,Alto ($$$),Pacífico/Roja,Ataque Directo,Individual,No Intervención,Hombre,Corto (1m),OBANDO,0.0,Ascenso,1,0.0,10.0,0.0,0,0,1,1
321207,,2002,9,1,5042,SANTA FE DE ANTIOQUIA,ANTIOQUIA,OCCIDENTE ANTIOQUEÑO,INTERCEPTACIÓN,GRUPO ARMADO NO IDENTIFICADO,NO APLICA,0,0,0,0,0,0,0,0,0,,,3,MÚLTIPLE,EXTORSIVO,ECONÓMICA,,6.535711576,-75.904266579,362639,HOMBRE,,COMERCIANTE,CIVIL,,,,,LIBERADO,,PAGO,1.0,1,,No_GAULA,Matched (3),01sep2002,2002m9,Pago,Delincuencia/Otro,Alto ($$$),Andina,Ataque Directo,Grupal,No Intervención,Hombre,Exprés (<=2d),SANTA FE DE ANTIOQUIA,1.0986123,Crisis/Caguán,1,0.0,1.0,0.0,0,0,1,1
321207,,2002,9,1,5042,SANTA FE DE ANTIOQUIA,ANTIOQUIA,OCCIDENTE ANTIOQUEÑO,INTERCEPTACIÓN,GRUPO ARMADO NO IDENTIFICADO,NO APLICA,0,0,0,0,0,0,0,0,0,,,3,MÚLTIPLE,EXTORSIVO,ECONÓMICA,,6.535711576,-75.904266579,362640,HOMBRE,,COMERCIANTE,CIVIL,,,,,LIBERADO,,PAGO,1.0,1,,No_GAULA,Matched (3),01sep2002,2002m9,Pago,Delincuencia/Otro,Alto ($$$),Andina,Ataque Directo,Grupal,No Intervención,Hombre,Exprés (<=2d),SANTA FE DE ANTIOQUIA,1.0986123,Crisis/Caguán,1,0.0,1.0,0.0,0,0,1,1
321207,,2002,9,1,5042,SANTA FE DE ANTIOQUIA,ANTIOQUIA,OCCIDENTE ANTIOQUEÑO,INTERCEPTACIÓN,GRUPO ARMADO NO IDENTIFICADO,NO APLICA,0,0,0,0,0,0,0,0,0,,,3,MÚLTIPLE,EXTORSIVO,ECONÓMICA,,6.535711576,-75.904266579,362641,HOMBRE,,COMERCIANTE,CIVIL,,,,,LIBERADO,,PAGO,1.0,1,,No_GAULA,Matched (3),01sep2002,2002m9,Pago,Delincuencia/Otro,Alto ($$$),Andina,Ataque Directo,Grupal,No Intervención,Hombre,Exprés (<=2d),SANTA FE DE ANTIOQUIA,1.0986123,Crisis/Caguán,1,0.0,1.0,0.0,0,0,1,1
321217,,2004,4,4,5790,TARAZA,ANTIOQUIA,BAJO CAUCA ANTIOQUEÑO,ASALTO,GRUPO PARAMILITAR,NO IDENTIFICADO,0,0,0,0,1,0,0,0,0,,,1,INDIVIDUAL,EXTORSIVO,ECONÓMICA,,7.488875998,-75.401894377,362649,HOMBRE,,GANADERO/HACENDADO,CIVIL,,,,,LIBERADO,,PAGO,,0,,No_GAULA,Matched (3),04apr2004,2004m4,Pago,Paramilitares,Alto ($$$),Andina,Ataque Directo,Individual,No Intervención,Hombre,Sin Dato,TARAZA,0.0,Seg. Democrática,0,,,,0,0,1,1
321235,CR037178,2015,9,27,19698,SANTANDER DE QUILICHAO,CAUCA,NORTE DEL CAUCA,DESCONOCIDA,GUERRILLA,FARC,0,0,0,0,0,0,0,0,0,,,1,INDIVIDUAL,EXTORSIVO,CONTROL DE POBLACIÓN,,2.984467338,-76.498731453,362667,HOMBRE,INDÍGENA,SIN INFORMACIÓN,CIVIL,,,,,LIBERADO,,FUGA,,0,,No_GAULA,Matched (3),27sep2015,2015m9,Fuga o Liberación,FARC,Desconocido,Pacífico/Roja,Desconocido,Individual,No Intervención,Hombre,Sin Dato,SANTANDER DE QUILICHAO,0.0,Paz/Actual,0,,,,0,0,1,1
321290,,2001,4,15,63401,LA TEBAIDA,QUINDIO,EJE CAFETERO,CITACIÓN,GRUPO PARAMILITAR,AUTODEFENSAS UNIDAS DE COLOMBIA AUC,0,0,0,0,0,0,0,0,0,,,3,MÚLTIPLE,EXTORSIVO,ECONÓMICA,,4.426884849,-75.819273353,362724,MUJER,,SIN INFORMACIÓN,CIVIL,,,,,LIBERADO,,PAGO,3.0,1,PRIMERA INFANCIA (0-5 AÑOS),No_GAULA,Matched (3),15apr2001,2001m4,Pago,Paramilitares,Desconocido,Andina,Engaño,Grupal,No Intervención,Mujer,Corto (1m),LA TEBAIDA,1.0986123,Crisis/Caguán,1,0.0,3.0,0.0,0,0,1,1
321290,,2001,4,15,63401,LA TEBAIDA,QUINDIO,EJE CAFETERO,CITACIÓN,GRUPO PARAMILITAR,AUTODEFENSAS UNIDAS DE COLOMBIA AUC,0,0,0,0,0,0,0,0,0,,,3,MÚLTIPLE,EXTORSIVO,ECONÓMICA,,4.426884849,-75.819273353,362723,HOMBRE,,SIN INFORMACIÓN,CIVIL,,,,,LIBERADO,,PAGO,3.0,1,,No_GAULA,Matched (3),15apr2001,2001m4,Pago,Paramilitares,Desconocido,Andina,Engaño,Grupal,No Intervención,Hombre,Corto (1m),LA TEBAIDA,1.0986123,Crisis/Caguán,1,0.0,3.0,0.0,0,0,1,1
321290,,2001,4,15,63401,LA TEBAIDA,QUINDIO,EJE CAFETERO,CITACIÓN,GRUPO PARAMILITAR,AUTODEFENSAS UNIDAS DE COLOMBIA AUC,0,0,0,0,0,0,0,0,0,,,3,MÚLTIPLE,EXTORSIVO,ECONÓMICA,,4.426884849,-75.819273353,362722,MUJER,,SIN INFORMACIÓN,CIVIL,,,,,LIBERADO,,PAGO,3.0,1,,No_GAULA,Matched (3),15apr2001,2001m4,Pago,Paramilitares,Desconocido,Andina,Engaño,Grupal,No Intervención,Mujer,Corto (1m),LA TEBAIDA,1.0986123,Crisis/Caguán,1,0.0,3.0,0.0,0,0,1,1
321397,,1968,7,15,0,SIN INFORMACION,SIN INFORMACION,SIN INFORMACION,DESCONOCIDA,AGENTE DEL ESTADO,EJÉRCITO NACIONAL,0,0,0,0,0,0,0,0,0,,,1,INDIVIDUAL,EXTORSIVO,ECONÓMICA,,4.0,-72.0,362829,HOMBRE,,GANADERO/HACENDADO,CIVIL,,,,,LIBERADO,,PAGO,,0,,No_GAULA,Matched (3),15jul1968,1968m7,Pago,Delincuencia/Otro,Alto ($$$),Sin región,Desconocido,Individual,No Intervención,Hombre,Sin Dato,SIN INFORMACION,0.0,Ascenso,0,,,,0,0,0,0
321504,,1965,2,1,11001,"BOGOTA, D.C.","BOGOTA, D. C.",AREA METROPOLITANA DE BOGOTA,DESCONOCIDA,BANDOLERISMO,NO IDENTIFICADO,0,0,0,0,0,0,0,0,0,,,1,INDIVIDUAL,EXTORSIVO,ECONÓMICA,,4.316107698,-74.181072702,362936,HOMBRE,,SIN INFORMACIÓN,CIVIL,,,,,LIBERADO,,POR PRESIÓN/INTERMEDIACIÓN,1.0,1,,No_GAULA,Matched (3),01feb1965,1965m2,Fuga o Liberación,Delincuencia/Otro,Desconocido,Metrópolis,Desconocido,Individual,No Intervención,Hombre,Exprés (<=2d),"BOGOTA, D.C.",0.0,Ascenso,1,0.0,1.0,0.0,0,0,1,1
321515,,1969,7,21,76000,SIN INFORMACION,VALLE DEL CAUCA,,INTERCEPTACIÓN,GRUPO ARMADO NO IDENTIFICADO,NO APLICA,0,0,0,0,0,0,0,0,0,,,1,INDIVIDUAL,EXTORSIVO,ECONÓMICA,,3.569858693,-76.62850427,362947,HOMBRE,,PERSONAL DE SALUD,CIVIL,,,,,LIBERADO,,PAGO,2.0,1,ADULTEZ (29-59 AÑOS),No_GAULA,Matched (3),21jul1969,1969m7,Pago,Delincuencia/Otro,Clase Media,Pacífico/Roja,Ataque Directo,Individual,No Intervención,Hombre,Exprés (<=2d),SIN INFORMACION,0.0,Ascenso,1,0.0,2.0,0.0,0,0,1,1
321518,,1971,8,5,68689,SAN VICENTE DE CHUCURI,SANTANDER,MAGDALENA MEDIO,INTERCEPTACIÓN,GUERRILLA,ELN,0,0,0,0,0,0,1,0,0,,,1,INDIVIDUAL,EXTORSIVO,ECONÓMICA,,6.894292346,-73.539003336,362950,HOMBRE,,GANADERO/HACENDADO,CIVIL,,,,,LIBERADO,,PAGO,32.0,1,ADULTEZ (29-59 AÑOS),No_GAULA,Matched (3),05aug1971,1971m8,Pago,ELN,Alto ($$$),Andina,Ataque Directo,Individual,No Intervención,Hombre,Largo (>1m),SAN VICENTE DE CHUCURI,0.0,Ascenso,1,0.0,32.0,0.0,0,0,1,1
321519,,1971,8,16,68190,CIMITARRA,SANTANDER,MAGDALENA MEDIO,ASALTO,GUERRILLA,ELN,0,1,0,0,0,0,0,0,0,,,1,INDIVIDUAL,EXTORSIVO,ECONÓMICA,,6.40972961,-74.170304269,362951,HOMBRE,,GANADERO/HACENDADO,CIVIL,,,,,LIBERADO,,PAGO,24.0,1,,No_GAULA,Matched (3),16aug1971,1971m8,Pago,ELN,Alto ($$$),Andina,Ataque Directo,Individual,No Intervención,Hombre,Corto (1m),CIMITARRA,0.0,Ascenso,1,0.0,24.0,0.0,0,0,1,1
322161,,1999,6,7,68001,BUCARAMANGA,SANTANDER,PROVINCIA DE SOTO,DESCONOCIDA,GUERRILLA,DISIDENCIA EPL,0,0,0,0,0,0,0,0,0,,,18,COLECTIVO,EXTORSIVO,ECONÓMICA,,7.155833544,-73.111569971,363598,SIN INFORMACION,,SIN INFORMACIÓN,CIVIL,,,,,LIBERADO,,RESCATE,,0,,GAULA,Matched (3),07jun1999,1999m6,Rescate,Delincuencia/Otro,Desconocido,Metrópolis,Desconocido,Grupal,Intervención GAULA,Sin Info,Sin Dato,BUCARAMANGA,2.8903718,Crisis/Caguán,0,,,,0,0,1,1
322161,,1999,6,7,68001,BUCARAMANGA,SANTANDER,PROVINCIA DE SOTO,DESCONOCIDA,GUERRILLA,DISIDENCIA EPL,0,0,0,0,0,0,0,0,0,,,18,COLECTIVO,EXTORSIVO,ECONÓMICA,,7.155833544,-73.111569971,363602,SIN INFORMACION,,SIN INFORMACIÓN,CIVIL,,,,,LIBERADO,,RESCATE,,0,,GAULA,Matched (3),07jun1999,1999m6,Rescate,Delincuencia/Otro,Desconocido,Metrópolis,Desconocido,Grupal,Intervención GAULA,Sin Info,Sin Dato,BUCARAMANGA,2.8903718,Crisis/Caguán,0,,,,0,0,1,1
322161,,1999,6,7,68001,BUCARAMANGA,SANTANDER,PROVINCIA DE SOTO,DESCONOCIDA,GUERRILLA,DISIDENCIA EPL,0,0,0,0,0,0,0,0,0,,,18,COLECTIVO,EXTORSIVO,ECONÓMICA,,7.155833544,-73.111569971,363608,SIN INFORMACION,,SIN INFORMACIÓN,CIVIL,,,,,LIBERADO,,RESCATE,,0,,GAULA,Matched (3),07jun1999,1999m6,Rescate,Delincuencia/Otro,Desconocido,Metrópolis,Desconocido,Grupal,Intervención GAULA,Sin Info,Sin Dato,BUCARAMANGA,2.8903718,Crisis/Caguán,0,,,,0,0,1,1
322161,,1999,6,7,68001,BUCARAMANGA,SANTANDER,PROVINCIA DE SOTO,DESCONOCIDA,GUERRILLA,DISIDENCIA EPL,0,0,0,0,0,0,0,0,0,,,18,COLECTIVO,EXTORSIVO,ECONÓMICA,,7.155833544,-73.111569971,363606,SIN INFORMACION,,SIN INFORMACIÓN,CIVIL,,,,,LIBERADO,,RESCATE,,0,,GAULA,Matched (3),07jun1999,1999m6,Rescate,Delincuencia/Otro,Desconocido,Metrópolis,Desconocido,Grupal,Intervención GAULA,Sin Info,Sin Dato,BUCARAMANGA,2.8903718,Crisis/Caguán,0,,,,0,0,1,1
322161,,1999,6,7,68001,BUCARAMANGA,SANTANDER,PROVINCIA DE SOTO,DESCONOCIDA,GUERRILLA,DISIDENCIA EPL,0,0,0,0,0,0,0,0,0,,,18,COLECTIVO,EXTORSIVO,ECONÓMICA,,7.155833544,-73.111569971,363605,SIN INFORMACION,,SIN INFORMACIÓN,CIVIL,,,,,LIBERADO,,RESCATE,,0,,GAULA,Matched (3),07jun1999,1999m6,Rescate,Delincuencia/Otro,Desconocido,Metrópolis,Desconocido,Grupal,Intervención GAULA,Sin Info,Sin Dato,BUCARAMANGA,2.8903718,Crisis/Caguán,0,,,,0,0,1,1
322161,,1999,6,7,68001,BUCARAMANGA,SANTANDER,PROVINCIA DE SOTO,DESCONOCIDA,GUERRILLA,DISIDENCIA EPL,0,0,0,0,0,0,0,0,0,,,18,COLECTIVO,EXTORSIVO,ECONÓMICA,,7.155833544,-73.111569971,363600,SIN INFORMACION,,SIN INFORMACIÓN,CIVIL,,,,,LIBERADO,,RESCATE,,0,,GAULA,Matched (3),07jun1999,1999m6,Rescate,Delincuencia/Otro,Desconocido,Metrópolis,Desconocido,Grupal,Intervención GAULA,Sin Info,Sin Dato,BUCARAMANGA,2.8903718,Crisis/Caguán,0,,,,0,0,1,1
322161,,1999,6,7,68001,BUCARAMANGA,SANTANDER,PROVINCIA DE SOTO,DESCONOCIDA,GUERRILLA,DISIDENCIA EPL,0,0,0,0,0,0,0,0,0,,,18,COLECTIVO,EXTORSIVO,ECONÓMICA,,7.155833544,-73.111569971,363597,SIN INFORMACION,,SIN INFORMACIÓN,CIVIL,,,,,LIBERADO,,RESCATE,,0,,GAULA,Matched (3),07jun1999,1999m6,Rescate,Delincuencia/Otro,Desconocido,Metrópolis,Desconocido,Grupal,Intervención GAULA,Sin Info,Sin Dato,BUCARAMANGA,2.8903718,Crisis/Caguán,0,,,,0,0,1,1
322161,,1999,6,7,68001,BUCARAMANGA,SANTANDER,PROVINCIA DE SOTO,DESCONOCIDA,GUERRILLA,DISIDENCIA EPL,0,0,0,0,0,0,0,0,0,,,18,COLECTIVO,EXTORSIVO,ECONÓMICA,,7.155833544,-73.111569971,363599,SIN INFORMACION,,SIN INFORMACIÓN,CIVIL,,,,,LIBERADO,,RESCATE,,0,,GAULA,Matched (3),07jun1999,1999m6,Rescate,Delincuencia/Otro,Desconocido,Metrópolis,Desconocido,Grupal,Intervención GAULA,Sin Info,Sin Dato,BUCARAMANGA,2.8903718,Crisis/Caguán,0,,,,0,0,1,1
322161,,1999,6,7,68001,BUCARAMANGA,SANTANDER,PROVINCIA DE SOTO,DESCONOCIDA,GUERRILLA,DISIDENCIA EPL,0,0,0,0,0,0,0,0,0,,,18,COLECTIVO,EXTORSIVO,ECONÓMICA,,7.155833544,-73.111569971,363604,SIN INFORMACION,,SIN INFORMACIÓN,CIVIL,,,,,LIBERADO,,RESCATE,,0,,GAULA,Matched (3),07jun1999,1999m6,Rescate,Delincuencia/Otro,Desconocido,Metrópolis,Desconocido,Grupal,Intervención GAULA,Sin Info,Sin Dato,BUCARAMANGA,2.8903718,Crisis/Caguán,0,,,,0,0,1,1
322161,,1999,6,7,68001,BUCARAMANGA,SANTANDER,PROVINCIA DE SOTO,DESCONOCIDA,GUERRILLA,DISIDENCIA EPL,0,0,0,0,0,0,0,0,0,,,18,COLECTIVO,EXTORSIVO,ECONÓMICA,,7.155833544,-73.111569971,363593,SIN INFORMACION,,SIN INFORMACIÓN,CIVIL,,,,,LIBERADO,,RESCATE,,0,,GAULA,Matched (3),07jun1999,1999m6,Rescate,Delincuencia/Otro,Desconocido,Metrópolis,Desconocido,Grupal,Intervención GAULA,Sin Info,Sin Dato,BUCARAMANGA,2.8903718,Crisis/Caguán,0,,,,0,0,1,1
322161,,1999,6,7,68001,BUCARAMANGA,SANTANDER,PROVINCIA DE SOTO,DESCONOCIDA,GUERRILLA,DISIDENCIA EPL,0,0,0,0,0,0,0,0,0,,,18,COLECTIVO,EXTORSIVO,ECONÓMICA,,7.155833544,-73.111569971,363603,SIN INFORMACION,,SIN INFORMACIÓN,CIVIL,,,,,LIBERADO,,RESCATE,,0,,GAULA,Matched (3),07jun1999,1999m6,Rescate,Delincuencia/Otro,Desconocido,Metrópolis,Desconocido,Grupal,Intervención GAULA,Sin Info,Sin Dato,BUCARAMANGA,2.8903718,Crisis/Caguán,0,,,,0,0,1,1
322161,,1999,6,7,68001,BUCARAMANGA,SANTANDER,PROVINCIA DE SOTO,DESCONOCIDA,GUERRILLA,DISIDENCIA EPL,0,0,0,0,0,0,0,0,0,,,18,COLECTIVO,EXTORSIVO,ECONÓMICA,,7.155833544,-73.111569971,363596,SIN INFORMACION,,SIN INFORMACIÓN,CIVIL,,,,,LIBERADO,,RESCATE,,0,,GAULA,Matched (3),07jun1999,1999m6,Rescate,Delincuencia/Otro,Desconocido,Metrópolis,Desconocido,Grupal,Intervención GAULA,Sin Info,Sin Dato,BUCARAMANGA,2.8903718,Crisis/Caguán,0,,,,0,0,1,1
322161,,1999,6,7,68001,BUCARAMANGA,SANTANDER,PROVINCIA DE SOTO,DESCONOCIDA,GUERRILLA,DISIDENCIA EPL,0,0,0,0,0,0,0,0,0,,,18,COLECTIVO,EXTORSIVO,ECONÓMICA,,7.155833544,-73.111569971,363607,SIN INFORMACION,,SIN INFORMACIÓN,CIVIL,,,,,LIBERADO,,RESCATE,,0,,GAULA,Matched (3),07jun1999,1999m6,Rescate,Delincuencia/Otro,Desconocido,Metrópolis,Desconocido,Grupal,Intervención GAULA,Sin Info,Sin Dato,BUCARAMANGA,2.8903718,Crisis/Caguán,0,,,,0,0,1,1
322161,,1999,6,7,68001,BUCARAMANGA,SANTANDER,PROVINCIA DE SOTO,DESCONOCIDA,GUERRILLA,DISIDENCIA EPL,0,0,0,0,0,0,0,0,0,,,18,COLECTIVO,EXTORSIVO,ECONÓMICA,,7.155833544,-73.111569971,363601,SIN INFORMACION,,SIN INFORMACIÓN,CIVIL,,,,,LIBERADO,,RESCATE,,0,,GAULA,Matched (3),07jun1999,1999m6,Rescate,Delincuencia/Otro,Desconocido,Metrópolis,Desconocido,Grupal,Intervención GAULA,Sin Info,Sin Dato,BUCARAMANGA,2.8903718,Crisis/Caguán,0,,,,0,0,1,1
322161,,1999,6,7,68001,BUCARAMANGA,SANTANDER,PROVINCIA DE SOTO,DESCONOCIDA,GUERRILLA,DISIDENCIA EPL,0,0,0,0,0,0,0,0,0,,,18,COLECTIVO,EXTORSIVO,ECONÓMICA,,7.155833544,-73.111569971,363609,SIN INFORMACION,,SIN INFORMACIÓN,CIVIL,,,,,LIBERADO,,RESCATE,,0,,GAULA,Matched (3),07jun1999,1999m6,Rescate,Delincuencia/Otro,Desconocido,Metrópolis,Desconocido,Grupal,Intervención GAULA,Sin Info,Sin Dato,BUCARAMANGA,2.8903718,Crisis/Caguán,0,,,,0,0,1,1
322161,,1999,6,7,68001,BUCARAMANGA,SANTANDER,PROVINCIA DE SOTO,DESCONOCIDA,GUERRILLA,DISIDENCIA EPL,0,0,0,0,0,0,0,0,0,,,18,COLECTIVO,EXTORSIVO,ECONÓMICA,,7.155833544,-73.111569971,384483,HOMBRE,,SIN INFORMACIÓN,CIVIL,,,,,LIBERADO,,RESCATE,,0,,GAULA,Matched (3),07jun1999,1999m6,Rescate,Delincuencia/Otro,Desconocido,Metrópolis,Desconocido,Grupal,Intervención GAULA,Hombre,Sin Dato,BUCARAMANGA,2.8903718,Crisis/Caguán,0,,,,0,0,1,1
322161,,1999,6,7,68001,BUCARAMANGA,SANTANDER,PROVINCIA DE SOTO,DESCONOCIDA,GUERRILLA,DISIDENCIA EPL,0,0,0,0,0,0,0,0,0,,,18,COLECTIVO,EXTORSIVO,ECONÓMICA,,7.155833544,-73.111569971,363595,SIN INFORMACION,,SIN INFORMACIÓN,CIVIL,,,,,LIBERADO,,RESCATE,,0,,GAULA,Matched (3),07jun1999,1999m6,Rescate,Delincuencia/Otro,Desconocido,Metrópolis,Desconocido,Grupal,Intervención GAULA,Sin Info,Sin Dato,BUCARAMANGA,2.8903718,Crisis/Caguán,0,,,,0,0,1,1
322161,,1999,6,7,68001,BUCARAMANGA,SANTANDER,PROVINCIA DE SOTO,DESCONOCIDA,GUERRILLA,DISIDENCIA EPL,0,0,0,0,0,0,0,0,0,,,18,COLECTIVO,EXTORSIVO,ECONÓMICA,,7.155833544,-73.111569971,363594,SIN INFORMACION,,SIN INFORMACIÓN,CIVIL,,,,,LIBERADO,,RESCATE,,0,,GAULA,Matched (3),07jun1999,1999m6,Rescate,Delincuencia/Otro,Desconocido,Metrópolis,Desconocido,Grupal,Intervención GAULA,Sin Info,Sin Dato,BUCARAMANGA,2.8903718,Crisis/Caguán,0,,,,0,0,1,1
322443,,2005,2,2,52835,SAN ANDRES DE TUMACO,NARIÑO,ANDEN PACIFICO SUR,INTERCEPTACIÓN,GUERRILLA,FARC,0,0,0,0,0,0,0,0,0,,,1,INDIVIDUAL,EXTORSIVO,ECONÓMICA,,1.574550638,-78.615409629,363875,MUJER,,COMERCIANTE,CIVIL,,,,,LIBERADO,,RESCATE,,0,,No_GAULA,Matched (3),02feb2005,2005m2,Rescate,FARC,Alto ($$$),Sin región,Ataque Directo,Individual,No Intervención,Mujer,Sin Dato,SAN ANDRES DE TUMACO,0.0,Seg. Democrática,0,,,,0,0,1,1
323924,,2012,4,24,EXECU,FRONTERA ECUADOR,EXTERIOR,,DESCONOCIDA,GUERRILLA,FARC,0,0,0,0,0,0,0,0,0,,,1,INDIVIDUAL,EXTORSIVO,ECONÓMICA,,0.0,-77.950224,365356,HOMBRE,,SIN INFORMACIÓN,CIVIL,,,,,LIBERADO,,RESCATE,43.0,0,,No_GAULA,Matched (3),24apr2012,2012m4,Rescate,FARC,Desconocido,Sin región,Desconocido,Individual,No Intervención,Hombre,Largo (>1m),FRONTERA ECUADOR,0.0,Paz/Actual,1,0.0,43.0,0.0,0,0,0,0
323925,,2012,4,29,52001,PASTO,NARIÑO,CENTRO DE NARIÑO,INTERCEPTACIÓN,DESCONOCIDO,NO APLICA,0,0,0,0,0,0,0,0,0,,,3,COLECTIVO,EXTORSIVO,ECONÓMICA,,1.083605497,-77.206100743,365358,SIN INFORMACION,,EMPLEADO,CIVIL,MAESTRO O EDUCADOR,,,,LIBERADO,,RESCATE,,0,,GAULA,Matched (3),29apr2012,2012m4,Rescate,Delincuencia/Otro,Clase Media,Sin región,Ataque Directo,Grupal,Intervención GAULA,Sin Info,Sin Dato,PASTO,1.0986123,Paz/Actual,0,,,,0,0,1,1
323925,,2012,4,29,52001,PASTO,NARIÑO,CENTRO DE NARIÑO,INTERCEPTACIÓN,DESCONOCIDO,NO APLICA,0,0,0,0,0,0,0,0,0,,,3,COLECTIVO,EXTORSIVO,ECONÓMICA,,1.083605497,-77.206100743,365357,SIN INFORMACION,,EMPLEADO,CIVIL,MAESTRO O EDUCADOR,,,,LIBERADO,,RESCATE,,0,,GAULA,Matched (3),29apr2012,2012m4,Rescate,Delincuencia/Otro,Clase Media,Sin región,Ataque Directo,Grupal,Intervención GAULA,Sin Info,Sin Dato,PASTO,1.0986123,Paz/Actual,0,,,,0,0,1,1
323925,,2012,4,29,52001,PASTO,NARIÑO,CENTRO DE NARIÑO,INTERCEPTACIÓN,DESCONOCIDO,NO APLICA,0,0,0,0,0,0,0,0,0,,,3,COLECTIVO,EXTORSIVO,ECONÓMICA,,1.083605497,-77.206100743,365359,SIN INFORMACION,,EMPLEADO,CIVIL,MAESTRO O EDUCADOR,,,,LIBERADO,,RESCATE,,0,,GAULA,Matched (3),29apr2012,2012m4,Rescate,Delincuencia/Otro,Clase Media,Sin región,Ataque Directo,Grupal,Intervención GAULA,Sin Info,Sin Dato,PASTO,1.0986123,Paz/Actual,0,,,,0,0,1,1
324504,,1995,2,18,66456,MISTRATO,RISARALDA,EJE CAFETERO,DESCONOCIDA,GUERRILLA,ERG,0,0,0,0,0,0,0,0,0,,,1,INDIVIDUAL,EXTORSIVO,ECONÓMICA,,5.414078141,-75.961353866,365936,HOMBRE,,COMERCIANTE,CIVIL,,,,,LIBERADO,,PAGO,10.0,1,,No_GAULA,Matched (3),18feb1995,1995m2,Pago,ELN,Alto ($$$),Andina,Desconocido,Individual,No Intervención,Hombre,Corto (1m),MISTRATO,0.0,Ascenso,1,0.0,10.0,0.0,0,0,1,1
324506,,2003,2,7,86865,VALLE DEL GUAMUEZ,PUTUMAYO,BAJO PUTUMAYO,DESCONOCIDA,GRUPO PARAMILITAR,NO IDENTIFICADO,0,1,0,0,1,1,0,0,1,,,1,INDIVIDUAL,EXTORSIVO,ECONÓMICA,,0.423506,-76.906751,762691,HOMBRE,,SIN INFORMACIÓN,CIVIL,,,,,LIBERADO,,PAGO,12.0,1,ADULTEZ (29-59 AÑOS),No_GAULA,Matched (3),07feb2003,2003m2,Pago,Paramilitares,Desconocido,Oriente/Selva,Desconocido,Individual,No Intervención,Hombre,Corto (1m),VALLE DEL GUAMUEZ,0.0,Seg. Democrática,1,0.0,12.0,0.0,0,0,1,1
324714,CR2017324714,2003,4,7,25320,GUADUAS,CUNDINAMARCA,NOROCCIDENTE DE CUNDINAMARCA,ENGAÑO,GRUPO PARAMILITAR,AUTODEFENSAS UNIDAS DE COLOMBIA AUC,0,1,0,0,1,0,0,1,1,,,1,INDIVIDUAL,EXTORSIVO,OTRA,,5.173554764,-74.640146507,366146,HOMBRE,,CAMPESINO,CIVIL,,,,,LIBERADO,,FUGA,,1,,No_GAULA,Matched (3),07apr2003,2003m4,Fuga o Liberación,Paramilitares,Vulnerable,Andina,Engaño,Individual,No Intervención,Hombre,Sin Dato,GUADUAS,0.0,Seg. Democrática,0,,,,0,0,1,1
325201,,2003,9,26,73408,LERIDA,TOLIMA,NORTE DEL TOLIMA,ASALTO,GUERRILLA,ELN/ERP,0,0,0,0,0,0,0,0,1,,,1,INDIVIDUAL,EXTORSIVO,ECONÓMICA,,4.866034592,-74.923371784,366633,HOMBRE,,SIN INFORMACIÓN,CIVIL,,,,,LIBERADO,,PAGO,77.0,1,,No_GAULA,Matched (3),26sep2003,2003m9,Pago,ELN,Desconocido,Andina,Ataque Directo,Individual,No Intervención,Hombre,Largo (>1m),LERIDA,0.0,Seg. Democrática,1,0.0,77.0,0.0,0,0,1,1
325871,,1972,5,18,68689,SAN VICENTE DE CHUCURI,SANTANDER,MAGDALENA MEDIO,ASALTO,GUERRILLA,ELN,0,0,0,0,0,1,0,0,0,,,1,INDIVIDUAL,EXTORSIVO,ECONÓMICA,,6.894292346,-73.539003336,367303,HOMBRE,,SIN INFORMACIÓN,CIVIL,,,,,LIBERADO,,PAGO,20.0,0,,No_GAULA,Matched (3),18may1972,1972m5,Pago,ELN,Desconocido,Andina,Ataque Directo,Individual,No Intervención,Hombre,Corto (1m),SAN VICENTE DE CHUCURI,0.0,Ascenso,1,0.0,20.0,0.0,0,0,1,1
326037,,1982,8,14,73483,NATAGAIMA,TOLIMA,SUR DEL TOLIMA,ASALTO,GUERRILLA,FARC,0,0,0,0,0,0,0,0,0,,,1,INDIVIDUAL,EXTORSIVO,ECONÓMICA,,3.540518203,-75.122009994,367469,HOMBRE,,EMPRESARIO - INDUSTRIAL,CIVIL,,,,,LIBERADO,,PAGO,570.0,0,,No_GAULA,Matched (3),14aug1982,1982m8,Pago,FARC,Alto ($$$),Andina,Ataque Directo,Individual,No Intervención,Hombre,Largo (>1m),NATAGAIMA,0.0,Ascenso,1,0.0,570.0,0.0,0,0,1,1
326066,,1982,12,10,17653,SALAMINA,CALDAS,EJE CAFETERO,INTERCEPTACIÓN,GUERRILLA,NO IDENTIFICADA,0,0,0,0,0,0,0,0,0,,,1,INDIVIDUAL,EXTORSIVO,ECONÓMICA,,5.370332425,-75.409621766,367498,HOMBRE,,SIN INFORMACIÓN,CIVIL,,,,,LIBERADO,,RESCATE,,0,JUVENTUD (18-28 AÑOS),No_GAULA,Matched (3),10dec1982,1982m12,Rescate,Delincuencia/Otro,Desconocido,Andina,Ataque Directo,Individual,No Intervención,Hombre,Sin Dato,SALAMINA,0.0,Ascenso,0,,,,0,0,1,1
326088,,1983,1,18,68689,SAN VICENTE DE CHUCURI,SANTANDER,MAGDALENA MEDIO,ASALTO,GUERRILLA,FARC,0,0,0,0,0,0,0,0,0,,,1,INDIVIDUAL,EXTORSIVO,ECONÓMICA,,6.894292346,-73.539003336,367520,HOMBRE,,EMPRESARIO - INDUSTRIAL,CIVIL,DIRIGENTE DE PARTIDO POLÍTICO,LIBERAL,,,LIBERADO,,RESCATE,,0,,No_GAULA,Matched (3),18jan1983,1983m1,Rescate,FARC,Alto ($$$),Andina,Ataque Directo,Individual,No Intervención,Hombre,Sin Dato,SAN VICENTE DE CHUCURI,0.0,Ascenso,0,,,,0,0,1,1
326125,,1983,5,2,94001,INIRIDA,GUAINIA,AMAZONIA SUR-ORIENTAL,DESCONOCIDA,GUERRILLA,FARC,0,1,0,0,1,1,0,0,0,,,1,INDIVIDUAL,EXTORSIVO,ECONÓMICA,,3.516363079,-68.008347279,367557,HOMBRE,,GANADERO/HACENDADO,CIVIL,FAMILIAR DE PERSONA VULNERABLE,,,,LIBERADO,,PAGO,304.0,1,,No_GAULA,Matched (3),02may1983,1983m5,Pago,FARC,Alto ($$$),Oriente/Selva,Desconocido,Individual,No Intervención,Hombre,Largo (>1m),INIRIDA,0.0,Ascenso,1,0.0,304.0,0.0,0,0,1,1
326170,,1983,9,8,5051,ARBOLETES,ANTIOQUIA,URABA,INCURSIÓN,GUERRILLA,EPL,0,0,0,0,0,0,0,0,0,,,1,INDIVIDUAL,EXTORSIVO,ECONÓMICA,,8.611395262,-76.414783173,367602,HOMBRE,,SIN INFORMACIÓN,CIVIL,,,,,LIBERADO,,PAGO,,0,ADULTEZ (29-59 AÑOS),No_GAULA,Matched (3),08sep1983,1983m9,Pago,Delincuencia/Otro,Desconocido,Andina,Incursión Militar,Individual,No Intervención,Hombre,Sin Dato,ARBOLETES,0.0,Ascenso,0,,,,0,0,1,1
326250,,1984,4,21,15572,PUERTO BOYACA,BOYACA,MAGDALENA MEDIO,INCURSIÓN,GUERRILLA,FARC,0,0,0,0,0,0,0,1,0,,,1,INDIVIDUAL,EXTORSIVO,ECONÓMICA,,5.953466654,-74.452858102,367682,HOMBRE,,OTRA,CIVIL,,,,,LIBERADO,,RESCATE,,0,ADULTEZ (29-59 AÑOS),No_GAULA,Matched (3),21apr1984,1984m4,Rescate,FARC,Desconocido,Andina,Incursión Militar,Individual,No Intervención,Hombre,Sin Dato,PUERTO BOYACA,0.0,Ascenso,0,,,,0,0,1,1
326294,,1984,6,29,5858,VEGACHI,ANTIOQUIA,NORDESTE ANTIOQUEÑO,DESCONOCIDA,GUERRILLA,FARC,0,0,0,0,0,0,0,0,0,,,1,INDIVIDUAL,EXTORSIVO,ECONÓMICA,,6.836535122,-74.754030203,367726,HOMBRE,,GANADERO/HACENDADO,CIVIL,,,,,LIBERADO,,PAGO,,1,,No_GAULA,Matched (3),29jun1984,1984m6,Pago,FARC,Alto ($$$),Andina,Desconocido,Individual,No Intervención,Hombre,Sin Dato,VEGACHI,0.0,Ascenso,0,,,,0,0,1,1
326301,,1984,7,12,13473,MORALES,BOLIVAR,MAGDALENA MEDIO,DESCONOCIDA,GUERRILLA,ELN,1,0,0,0,1,0,0,0,0,,,1,INDIVIDUAL,EXTORSIVO,ECONÓMICA,,8.253700061,-73.971345899,567337,HOMBRE,,SIN INFORMACIÓN,CIVIL,,,,,LIBERADO,,PAGO,73.0,2,ADULTEZ (29-59 AÑOS),No_GAULA,Matched (3),12jul1984,1984m7,Pago,ELN,Desconocido,Caribe,Desconocido,Individual,No Intervención,Hombre,Largo (>1m),MORALES,0.0,Ascenso,1,0.0,73.0,0.0,0,0,1,1
326320,,1984,8,14,13600,RIO VIEJO,BOLIVAR,MAGDALENA MEDIO,DESCONOCIDA,GUERRILLA,ELN,0,0,0,0,0,0,0,0,0,,,1,INDIVIDUAL,EXTORSIVO,ECONÓMICA,,8.559982465,-73.902986677,367752,HOMBRE,,SIN INFORMACIÓN,CIVIL,,,,,LIBERADO,,RESCATE,20.0,1,ADULTEZ (29-59 AÑOS),No_GAULA,Matched (3),14aug1984,1984m8,Rescate,ELN,Desconocido,Caribe,Desconocido,Individual,No Intervención,Hombre,Corto (1m),RIO VIEJO,0.0,Ascenso,1,0.0,20.0,0.0,0,0,1,1
326337,,1984,9,25,11001,"BOGOTA, D.C.","BOGOTA, D. C.",AREA METROPOLITANA DE BOGOTA,ASALTO,GUERRILLA,ELN,0,0,0,0,0,0,0,0,0,,,1,INDIVIDUAL,EXTORSIVO,ECONÓMICA,,4.316107698,-74.181072702,367769,HOMBRE,,EMPRESARIO - INDUSTRIAL,CIVIL,,,,,LIBERADO,,RESCATE,35.0,1,,No_GAULA,Matched (3),25sep1984,1984m9,Rescate,ELN,Alto ($$$),Metrópolis,Ataque Directo,Individual,No Intervención,Hombre,Largo (>1m),"BOGOTA, D.C.",0.0,Ascenso,1,0.0,35.0,0.0,0,0,1,1
326799,,1987,7,21,23068,AYAPEL,CORDOBA,LA MOJANA,DESCONOCIDA,GUERRILLA,ELN,0,0,0,0,0,0,0,0,0,,,1,INDIVIDUAL,EXTORSIVO,ECONÓMICA,,8.265768688,-75.048684357,368231,HOMBRE,,SIN INFORMACIÓN,CIVIL,,,,,LIBERADO,,PAGO,,0,ADULTEZ (29-59 AÑOS),No_GAULA,Matched (3),21jul1987,1987m7,Pago,ELN,Desconocido,Caribe,Desconocido,Individual,No Intervención,Hombre,Sin Dato,AYAPEL,0.0,Ascenso,0,,,,0,0,1,1
326896,,1988,1,11,23068,AYAPEL,CORDOBA,LA MOJANA,DESCONOCIDA,GUERRILLA,EPL,0,0,0,0,0,0,0,0,0,,,1,INDIVIDUAL,EXTORSIVO,ECONÓMICA,,8.265768688,-75.048684357,368328,HOMBRE,,SIN INFORMACIÓN,CIVIL,,,,,LIBERADO,,PAGO,31.0,0,,No_GAULA,Matched (3),11jan1988,1988m1,Pago,Delincuencia/Otro,Desconocido,Caribe,Desconocido,Individual,No Intervención,Hombre,Largo (>1m),AYAPEL,0.0,Ascenso,1,0.0,31.0,0.0,0,0,1,1
327024,,1988,4,21,13074,BARRANCO DE LOBA,BOLIVAR,SUR DE BOLIVAR,DESCONOCIDA,GUERRILLA,ELN,0,0,0,0,0,0,0,0,0,,,1,INDIVIDUAL,EXTORSIVO,ECONÓMICA,,8.837077654,-74.279665305,368456,HOMBRE,,SIN INFORMACIÓN,CIVIL,,,,,LIBERADO,,PAGO,150.0,0,ADULTEZ (29-59 AÑOS),No_GAULA,Matched (3),21apr1988,1988m4,Pago,ELN,Desconocido,Caribe,Desconocido,Individual,No Intervención,Hombre,Largo (>1m),BARRANCO DE LOBA,0.0,Ascenso,1,0.0,150.0,0.0,0,0,1,1
327565,,1989,10,6,20045,BECERRIL,CESAR,SERRANIA DEL PERIJA,DESCONOCIDA,GUERRILLA,ELN,0,0,0,0,0,0,0,0,0,,,1,INDIVIDUAL,EXTORSIVO,ECONÓMICA,,9.727732939,-73.252505222,368997,HOMBRE,,SIN INFORMACIÓN,CIVIL,,,,,LIBERADO,,PAGO,79.0,0,ADULTEZ (29-59 AÑOS),No_GAULA,Matched (3),06oct1989,1989m10,Pago,ELN,Desconocido,Caribe,Desconocido,Individual,No Intervención,Hombre,Largo (>1m),BECERRIL,0.0,Ascenso,1,0.0,79.0,0.0,0,0,1,1
327835,,1990,3,19,20011,AGUACHICA,CESAR,MAGDALENA MEDIO,DESCONOCIDA,GUERRILLA,ELN,0,0,0,0,0,0,0,0,0,,,1,INDIVIDUAL,EXTORSIVO,ECONÓMICA,,8.248735219,-73.6227405,369267,HOMBRE,,SIN INFORMACIÓN,CIVIL,,,,,LIBERADO,,PAGO,130.0,0,ADULTEZ (29-59 AÑOS),No_GAULA,Matched (3),19mar1990,1990m3,Pago,ELN,Desconocido,Caribe,Desconocido,Individual,No Intervención,Hombre,Largo (>1m),AGUACHICA,0.0,Ascenso,1,0.0,130.0,0.0,0,0,1,1
328226,,1990,10,23,50318,GUAMAL,META,PIEDEMONTE LLANERO,DESCONOCIDA,GUERRILLA,FARC,0,0,0,0,0,0,0,0,0,,,1,INDIVIDUAL,EXTORSIVO,ECONÓMICA,,3.947775585,-73.959838638,763298,HOMBRE,,GANADERO/HACENDADO,CIVIL,FAMILIAR DE PERSONA VULNERABLE,,,,LIBERADO,,PAGO,150.0,1,,No_GAULA,Matched (3),23oct1990,1990m10,Pago,FARC,Alto ($$$),Oriente/Selva,Desconocido,Individual,No Intervención,Hombre,Largo (>1m),GUAMAL,0.0,Ascenso,1,0.0,150.0,0.0,0,0,1,1
328350,,1991,1,16,13000,SIN INFORMACION,BOLIVAR,,ASALTO,GUERRILLA,FARC,0,0,0,0,0,0,0,0,0,,,1,INDIVIDUAL,EXTORSIVO,ECONÓMICA,,8.079796863,-74.235148136,369782,HOMBRE,,CAMPESINO,CIVIL,,,,,LIBERADO,,PAGO,60.0,0,,No_GAULA,Matched (3),16jan1991,1991m1,Pago,FARC,Vulnerable,Caribe,Ataque Directo,Individual,No Intervención,Hombre,Largo (>1m),SIN INFORMACION,0.0,Ascenso,1,0.0,60.0,0.0,0,0,1,1
328364,,1991,1,21,44855,URUMITA,LA GUAJIRA,SERRANIA DEL PERIJA,ASALTO,GUERRILLA,NO IDENTIFICADA,0,1,0,0,1,1,0,1,0,,,1,INDIVIDUAL,EXTORSIVO,ECONÓMICA,,10.494702101,-72.986239906,369796,HOMBRE,,GANADERO/HACENDADO,CIVIL,MIEMBRO DE ORGANIZACIÓN SOCIAL Y/O GREMIAL,,,,LIBERADO,,PAGO,10.0,1,PERSONA MAYOR (60 AÑOS O MAS),No_GAULA,Matched (3),21jan1991,1991m1,Pago,Delincuencia/Otro,Alto ($$$),Caribe,Ataque Directo,Individual,No Intervención,Hombre,Corto (1m),URUMITA,0.0,Ascenso,1,0.0,10.0,0.0,0,0,1,1
328555,,1991,4,25,5792,TARSO,ANTIOQUIA,SUROESTE ANTIOQUEÑO,INTERCEPTACIÓN,GUERRILLA,ELN,0,0,0,0,0,0,0,0,0,,,1,INDIVIDUAL,EXTORSIVO,ECONÓMICA,,5.871064557,-75.828711443,369987,HOMBRE,,ADMINISTRADOR DE FINCA,CIVIL,,,,,LIBERADO,,PAGO,150.0,1,ADULTEZ (29-59 AÑOS),No_GAULA,Matched (3),25apr1991,1991m4,Pago,ELN,Clase Media,Andina,Ataque Directo,Individual,No Intervención,Hombre,Largo (>1m),TARSO,0.0,Ascenso,1,0.0,150.0,0.0,0,0,1,1
328658,,1991,5,11,5686,SANTA ROSA DE OSOS,ANTIOQUIA,NORTE DE ANTIOQUIA,INTERCEPTACIÓN,GUERRILLA,FARC,0,0,0,0,0,0,0,0,0,,,1,INDIVIDUAL,EXTORSIVO,ECONÓMICA,,6.675827825,-75.438143332,370090,MUJER,,CAMPESINO,CIVIL,,,,,LIBERADO,,PAGO,,0,,No_GAULA,Matched (3),11may1991,1991m5,Pago,FARC,Vulnerable,Andina,Ataque Directo,Individual,No Intervención,Mujer,Sin Dato,SANTA ROSA DE OSOS,0.0,Ascenso,0,,,,0,0,1,1
328704,,1991,6,2,19532,PATIA,CAUCA,PATIA,INTERCEPTACIÓN,GUERRILLA,FARC,0,0,0,0,0,0,0,0,0,,,1,INDIVIDUAL,EXTORSIVO,ECONÓMICA,,2.157983906,-77.046576199,370136,HOMBRE,,SIN INFORMACIÓN,CIVIL,,,,,LIBERADO,,PAGO,60.0,0,,No_GAULA,Matched (3),02jun1991,1991m6,Pago,FARC,Desconocido,Pacífico/Roja,Ataque Directo,Individual,No Intervención,Hombre,Largo (>1m),PATIA,0.0,Ascenso,1,0.0,60.0,0.0,0,0,1,1
328844,,1991,8,3,19807,TIMBIO,CAUCA,MACIZO COLOMBIANO,DESCONOCIDA,GUERRILLA,FARC,0,0,0,0,0,0,0,0,0,,,1,INDIVIDUAL,EXTORSIVO,ECONÓMICA,,2.369625312,-76.710519323,370276,HOMBRE,,SIN INFORMACIÓN,CIVIL,,,,,LIBERADO,,PAGO,,0,,No_GAULA,Matched (3),03aug1991,1991m8,Pago,FARC,Desconocido,Pacífico/Roja,Desconocido,Individual,No Intervención,Hombre,Sin Dato,TIMBIO,0.0,Ascenso,0,,,,0,0,1,1
329207,CR020264,1992,6,10,23855,VALENCIA,CORDOBA,URABA,RETÉN,GUERRILLA,DISIDENCIA EPL,0,0,0,0,0,0,0,0,0,,,1,INDIVIDUAL,EXTORSIVO,ECONÓMICA,,8.219904128,-76.2213286,370639,HOMBRE,,SIN INFORMACIÓN,CIVIL,,,,,LIBERADO,,PAGO,25.0,0,ADULTEZ (29-59 AÑOS),No_GAULA,Matched (3),10jun1992,1992m6,Pago,Delincuencia/Otro,Desconocido,Caribe,Retén (Azar),Individual,No Intervención,Hombre,Corto (1m),VALENCIA,0.0,Ascenso,1,0.0,25.0,0.0,0,0,1,1
329237,,1992,7,17,5495,NECHI,ANTIOQUIA,LA MOJANA,ASALTO,GUERRILLA,NO IDENTIFICADA,0,0,0,0,0,0,0,0,0,,,1,INDIVIDUAL,EXTORSIVO,ECONÓMICA,,7.983477394,-74.65844186,370669,HOMBRE,,SIN INFORMACIÓN,CIVIL,,,,,LIBERADO,,PAGO,300.0,0,ADULTEZ (29-59 AÑOS),No_GAULA,Matched (3),17jul1992,1992m7,Pago,Delincuencia/Otro,Desconocido,Andina,Ataque Directo,Individual,No Intervención,Hombre,Largo (>1m),NECHI,0.0,Ascenso,1,0.0,300.0,0.0,0,0,1,1
329466,,1993,11,11,20621,LA PAZ,CESAR,SERRANIA DEL PERIJA,DESCONOCIDA,GUERRILLA,ELN,0,0,0,0,0,1,0,1,0,,,1,INDIVIDUAL,EXTORSIVO,ECONÓMICA,,10.244405624,-73.078245692,370898,HOMBRE,,SIN INFORMACIÓN,CIVIL,,,,,LIBERADO,,PAGO,69.0,0,ADULTEZ (29-59 AÑOS),No_GAULA,Matched (3),11nov1993,1993m11,Pago,ELN,Desconocido,Caribe,Desconocido,Individual,No Intervención,Hombre,Largo (>1m),LA PAZ,0.0,Ascenso,1,0.0,69.0,0.0,0,0,1,1
329488,,1994,1,1,41319,GUADALUPE,HUILA,SUR DEL HUILA,DESCONOCIDA,GUERRILLA,NO IDENTIFICADA,0,0,0,0,0,0,0,0,0,,,1,INDIVIDUAL,EXTORSIVO,ECONÓMICA,,1.984394016,-75.696935488,370920,HOMBRE,,SIN INFORMACIÓN,CIVIL,,,,,LIBERADO,,PAGO,,1,ADULTEZ (29-59 AÑOS),No_GAULA,Matched (3),01jan1994,1994m1,Pago,Delincuencia/Otro,Desconocido,Andina,Desconocido,Individual,No Intervención,Hombre,Sin Dato,GUADALUPE,0.0,Ascenso,0,,,,0,0,1,1
329506,,1994,1,18,66572,PUEBLO RICO,RISARALDA,EJE CAFETERO,INTERCEPTACIÓN,GUERRILLA,ERG,0,0,0,0,0,0,0,0,0,,,1,INDIVIDUAL,EXTORSIVO,ECONÓMICA,,5.286295408,-76.073594212,370938,HOMBRE,,CONDUCTOR/MOTORISTA,CIVIL,,,,,LIBERADO,,PAGO,41.0,1,ADULTEZ (29-59 AÑOS),No_GAULA,Matched (3),18jan1994,1994m1,Pago,ELN,Vulnerable,Andina,Ataque Directo,Individual,No Intervención,Hombre,Largo (>1m),PUEBLO RICO,0.0,Ascenso,1,0.0,41.0,0.0,0,0,1,1
329509,,1994,1,24,47245,EL BANCO,MAGDALENA,SUR DE MAGDALENA,ASALTO,GUERRILLA,ELN,0,0,0,0,0,0,0,0,0,,,1,INDIVIDUAL,EXTORSIVO,ECONÓMICA,,9.114930635,-73.981054905,370941,MUJER,,SIN INFORMACIÓN,CIVIL,,,,,LIBERADO,,PAGO,30.0,0,ADULTEZ (29-59 AÑOS),No_GAULA,Matched (3),24jan1994,1994m1,Pago,ELN,Desconocido,Caribe,Ataque Directo,Individual,No Intervención,Mujer,Corto (1m),EL BANCO,0.0,Ascenso,1,0.0,30.0,0.0,0,0,1,1
329514,,1994,2,7,5154,CAUCASIA,ANTIOQUIA,BAJO CAUCA ANTIOQUEÑO,ASALTO,GUERRILLA,ELN,0,0,0,0,0,0,0,0,0,,,1,INDIVIDUAL,EXTORSIVO,ECONÓMICA,,7.867941792,-75.035018239,370946,HOMBRE,,SIN INFORMACIÓN,CIVIL,,,,,LIBERADO,,PAGO,,0,ADULTEZ (29-59 AÑOS),No_GAULA,Matched (3),07feb1994,1994m2,Pago,ELN,Desconocido,Andina,Ataque Directo,Individual,No Intervención,Hombre,Sin Dato,CAUCASIA,0.0,Ascenso,0,,,,0,0,1,1
329597,,1994,6,23,27787,TADO,CHOCO,VALLE DE SAN JUAN,INTERCEPTACIÓN,GUERRILLA,ERG,0,1,0,0,0,1,0,0,0,,,1,INDIVIDUAL,EXTORSIVO,ECONÓMICA,,5.26610158,-76.331095472,371029,HOMBRE,,CONDUCTOR/MOTORISTA,CIVIL,,,,,LIBERADO,,PAGO,92.0,1,ADOLESCENCIA (12-17 AÑOS),No_GAULA,Matched (3),23jun1994,1994m6,Pago,ELN,Vulnerable,Pacífico/Roja,Ataque Directo,Individual,No Intervención,Hombre,Largo (>1m),TADO,0.0,Ascenso,1,0.0,92.0,0.0,0,0,1,1
329618,,1994,8,6,13001,CARTAGENA DE INDIAS,BOLIVAR,CANAL DEL DIQUE,INTERCEPTACIÓN,GUERRILLA,ELN,0,0,0,0,0,0,0,0,0,,,1,INDIVIDUAL,EXTORSIVO,ECONÓMICA,,10.463433617,-75.45889915,371050,HOMBRE,,CAMPESINO,CIVIL,,,,,LIBERADO,,CANJE,30.0,0,PERSONA MAYOR (60 AÑOS O MAS),No_GAULA,Matched (3),06aug1994,1994m8,Pago,ELN,Vulnerable,Metrópolis,Ataque Directo,Individual,No Intervención,Hombre,Corto (1m),CARTAGENA DE INDIAS,0.0,Ascenso,1,0.0,30.0,0.0,0,0,1,1
329698,,1994,12,13,20001,VALLEDUPAR,CESAR,SIERRA NEVADA DE SANTA MARTA,ASALTO,GUERRILLA,ELN,0,0,0,0,0,0,0,0,0,,,1,INDIVIDUAL,EXTORSIVO,ECONÓMICA,,10.218902768,-73.457847638,371130,HOMBRE,,SIN INFORMACIÓN,CIVIL,,,,,LIBERADO,,PAGO,84.0,0,ADULTEZ (29-59 AÑOS),No_GAULA,Matched (3),13dec1994,1994m12,Pago,ELN,Desconocido,Caribe,Ataque Directo,Individual,No Intervención,Hombre,Largo (>1m),VALLEDUPAR,0.0,Ascenso,1,0.0,84.0,0.0,0,0,1,1
329747,,1995,2,15,5172,CHIGORODO,ANTIOQUIA,URABA,ASALTO,GRUPO PARAMILITAR,AUTODEFENSAS CAMPESINAS DE CÓRDOBA Y URABÁ (ACCU),0,0,0,0,0,0,0,0,0,,,1,INDIVIDUAL,EXTORSIVO,ECONÓMICA,,7.631665644,-76.639642127,371179,HOMBRE,,CAMPESINO,CIVIL,,,,,LIBERADO,,PAGO,60.0,0,,No_GAULA,Matched (3),15feb1995,1995m2,Pago,Paramilitares,Vulnerable,Andina,Ataque Directo,Individual,No Intervención,Hombre,Largo (>1m),CHIGORODO,0.0,Ascenso,1,0.0,60.0,0.0,0,0,1,1
329776,,1995,4,30,23068,AYAPEL,CORDOBA,LA MOJANA,ASALTO,GUERRILLA,ELN,0,0,0,0,0,0,0,0,0,,,1,INDIVIDUAL,EXTORSIVO,ECONÓMICA,,8.265768688,-75.048684357,371208,HOMBRE,,SIN INFORMACIÓN,CIVIL,,,,,LIBERADO,,PAGO,120.0,0,,No_GAULA,Matched (3),30apr1995,1995m4,Pago,ELN,Desconocido,Caribe,Ataque Directo,Individual,No Intervención,Hombre,Largo (>1m),AYAPEL,0.0,Ascenso,1,0.0,120.0,0.0,0,0,1,1
329778,,1995,5,6,23068,AYAPEL,CORDOBA,LA MOJANA,ASALTO,GUERRILLA,ELN,0,0,0,0,0,0,0,0,0,,,1,INDIVIDUAL,EXTORSIVO,ECONÓMICA,,8.265768688,-75.048684357,371210,HOMBRE,,SIN INFORMACIÓN,CIVIL,,,,,LIBERADO,,CANJE,,0,PERSONA MAYOR (60 AÑOS O MAS),No_GAULA,Matched (3),06may1995,1995m5,Pago,ELN,Desconocido,Caribe,Ataque Directo,Individual,No Intervención,Hombre,Sin Dato,AYAPEL,0.0,Ascenso,0,,,,0,0,1,1
329875,,1995,10,24,23855,VALENCIA,CORDOBA,URABA,ASALTO,GUERRILLA,ELN,0,0,0,0,0,0,0,0,0,,,1,INDIVIDUAL,EXTORSIVO,ECONÓMICA,,8.219904128,-76.2213286,371307,HOMBRE,,SIN INFORMACIÓN,CIVIL,,,,,LIBERADO,,PAGO,,0,ADULTEZ (29-59 AÑOS),No_GAULA,Matched (3),24oct1995,1995m10,Pago,ELN,Desconocido,Caribe,Ataque Directo,Individual,No Intervención,Hombre,Sin Dato,VALENCIA,0.0,Ascenso,0,,,,0,0,1,1
330079,,1996,3,4,76001,SANTIAGO DE CALI,VALLE DEL CAUCA,SUR DEL VALLE,DESCONOCIDA,CRIMEN ORGANIZADO,CARTEL DE CALI,0,0,0,0,0,0,0,0,0,,,1,COLECTIVO,EXTORSIVO,ECONÓMICA,,3.399043723,-76.576492589,371511,HOMBRE,,SIN INFORMACIÓN,CIVIL,,,,,LIBERADO,,RESCATE,,0,,GAULA,Matched (3),04mar1996,1996m3,Rescate,Delincuencia/Otro,Desconocido,Metrópolis,Desconocido,Grupal,Intervención GAULA,Hombre,Sin Dato,SANTIAGO DE CALI,0.0,Ascenso,0,,,,0,0,1,1
330192,,1996,4,25,5615,RIONEGRO,ANTIOQUIA,ORIENTE ANTIOQUEÑO,DESCONOCIDA,GUERRILLA,ELN,0,0,0,0,0,0,0,0,0,,,1,INDIVIDUAL,EXTORSIVO,ECONÓMICA,,6.150785807,-75.410760524,371624,HOMBRE,,PROFESIONAL,CIVIL,MAESTRO O EDUCADOR,,,,LIBERADO,,RESCATE,,0,,No_GAULA,Matched (3),25apr1996,1996m4,Rescate,ELN,Clase Media,Andina,Desconocido,Individual,No Intervención,Hombre,Sin Dato,RIONEGRO,0.0,Ascenso,0,,,,0,0,1,1
330214,,1996,5,7,20045,BECERRIL,CESAR,SERRANIA DEL PERIJA,DESCONOCIDA,GUERRILLA,FARC,0,0,0,0,0,0,0,0,0,,,1,INDIVIDUAL,EXTORSIVO,ND,,9.727732939,-73.252505222,371646,HOMBRE,,PROFESIONAL,CIVIL,,,,,LIBERADO,,RESCATE,,0,ADULTEZ (29-59 AÑOS),No_GAULA,Matched (3),07may1996,1996m5,Rescate,FARC,Clase Media,Caribe,Desconocido,Individual,No Intervención,Hombre,Sin Dato,BECERRIL,0.0,Ascenso,0,,,,0,0,1,1
330443,,1996,8,15,76001,SANTIAGO DE CALI,VALLE DEL CAUCA,SUR DEL VALLE,DESCONOCIDA,CRIMEN ORGANIZADO,CARTEL DE CALI,0,0,0,0,0,0,0,0,0,,,1,INDIVIDUAL,EXTORSIVO,ECONÓMICA,,3.399043723,-76.576492589,371875,MUJER,,COMERCIANTE,CIVIL,,,,,LIBERADO,,RESCATE,,0,,GAULA,Matched (3),15aug1996,1996m8,Rescate,Delincuencia/Otro,Alto ($$$),Metrópolis,Desconocido,Individual,Intervención GAULA,Mujer,Sin Dato,SANTIAGO DE CALI,0.0,Ascenso,0,,,,0,0,1,1
330483,,1996,8,28,76001,SANTIAGO DE CALI,VALLE DEL CAUCA,SUR DEL VALLE,DESCONOCIDA,CRIMEN ORGANIZADO,CARTEL DE CALI,0,0,0,0,0,0,0,0,0,,,1,INDIVIDUAL,EXTORSIVO,ECONÓMICA,,3.399043723,-76.576492589,371915,HOMBRE,,COMERCIANTE,CIVIL,,,,,LIBERADO,,RESCATE,,0,,GAULA,Matched (3),28aug1996,1996m8,Rescate,Delincuencia/Otro,Alto ($$$),Metrópolis,Desconocido,Individual,Intervención GAULA,Hombre,Sin Dato,SANTIAGO DE CALI,0.0,Ascenso,0,,,,0,0,1,1
330484,,1996,8,28,76001,SANTIAGO DE CALI,VALLE DEL CAUCA,SUR DEL VALLE,DESCONOCIDA,CRIMEN ORGANIZADO,CARTEL DE CALI,0,0,0,0,0,0,0,0,0,,,1,INDIVIDUAL,EXTORSIVO,ECONÓMICA,,3.399043723,-76.576492589,371916,HOMBRE,,COMERCIANTE,CIVIL,,,,,LIBERADO,,RESCATE,,0,,GAULA,Matched (3),28aug1996,1996m8,Rescate,Delincuencia/Otro,Alto ($$$),Metrópolis,Desconocido,Individual,Intervención GAULA,Hombre,Sin Dato,SANTIAGO DE CALI,0.0,Ascenso,0,,,,0,0,1,1
330611,,1996,10,21,68001,BUCARAMANGA,SANTANDER,PROVINCIA DE SOTO,ASALTO,GUERRILLA,ELN,0,0,0,0,0,0,0,0,0,,,1,INDIVIDUAL,EXTORSIVO,ECONÓMICA,,7.155833544,-73.111569971,372043,HOMBRE,,SIN INFORMACIÓN,CIVIL,,,,,LIBERADO,,RESCATE,,0,,GAULA,Matched (3),21oct1996,1996m10,Rescate,ELN,Desconocido,Metrópolis,Ataque Directo,Individual,Intervención GAULA,Hombre,Sin Dato,BUCARAMANGA,0.0,Ascenso,0,,,,0,0,1,1
330666,,1996,11,19,19698,SANTANDER DE QUILICHAO,CAUCA,NORTE DEL CAUCA,DESCONOCIDA,GUERRILLA,ELN,0,0,0,0,0,0,0,0,0,,,1,INDIVIDUAL,EXTORSIVO,ECONÓMICA,,2.984467338,-76.498731453,372098,HOMBRE,,COMERCIANTE,CIVIL,,,,,LIBERADO,,RESCATE,,0,ADULTEZ (29-59 AÑOS),No_GAULA,Matched (3),19nov1996,1996m11,Rescate,ELN,Alto ($$$),Pacífico/Roja,Desconocido,Individual,No Intervención,Hombre,Sin Dato,SANTANDER DE QUILICHAO,0.0,Ascenso,0,,,,0,0,1,1
330782,,1997,1,1,18410,LA MONTAÑITA,CAQUETA,FLORENCIA Y AREA DE INFLUENCIA,DESCONOCIDA,GUERRILLA,FARC,0,0,0,0,0,0,0,0,0,,,1,INDIVIDUAL,EXTORSIVO,ECONÓMICA,,1.302860442,-75.235727319,372214,MUJER,,COMERCIANTE,CIVIL,,,,,LIBERADO,,RESCATE,,0,,No_GAULA,Matched (3),01jan1997,1997m1,Rescate,FARC,Alto ($$$),Oriente/Selva,Desconocido,Individual,No Intervención,Mujer,Sin Dato,LA MONTAÑITA,0.0,Ascenso,0,,,,0,0,1,1
330855,,1997,1,26,68572,PUENTE NACIONAL,SANTANDER,PROVINCIA DE VELEZ,DESCONOCIDA,GUERRILLA,ELN,0,0,0,0,0,0,0,0,0,,,1,INDIVIDUAL,EXTORSIVO,ECONÓMICA,,5.831129906,-73.678418153,372287,HOMBRE,,SIN INFORMACIÓN,CIVIL,,,,,LIBERADO,,FUGA,,0,ADULTEZ (29-59 AÑOS),No_GAULA,Matched (3),26jan1997,1997m1,Fuga o Liberación,ELN,Desconocido,Andina,Desconocido,Individual,No Intervención,Hombre,Sin Dato,PUENTE NACIONAL,0.0,Ascenso,0,,,,0,0,1,1
330895,,1997,2,10,20013,AGUSTIN CODAZZI,CESAR,SERRANIA DEL PERIJA,INTERCEPTACIÓN,GUERRILLA,FARC,0,0,0,0,0,0,0,0,0,,,2,MÚLTIPLE,EXTORSIVO,ND,,10.040454,-73.238389,372327,HOMBRE,,EMPLEADO,CIVIL,,,,,LIBERADO,,RESCATE,,0,,No_GAULA,Matched (3),10feb1997,1997m2,Rescate,FARC,Clase Media,Caribe,Ataque Directo,Grupal,No Intervención,Hombre,Sin Dato,AGUSTIN CODAZZI,0.69314718,Ascenso,0,,,,0,0,1,1
330895,,1997,2,10,20013,AGUSTIN CODAZZI,CESAR,SERRANIA DEL PERIJA,INTERCEPTACIÓN,GUERRILLA,FARC,0,0,0,0,0,0,0,0,0,,,2,MÚLTIPLE,EXTORSIVO,ND,,10.040454,-73.238389,372328,HOMBRE,,EMPLEADO,CIVIL,,,,,LIBERADO,,RESCATE,,0,JUVENTUD (18-28 AÑOS),No_GAULA,Matched (3),10feb1997,1997m2,Rescate,FARC,Clase Media,Caribe,Ataque Directo,Grupal,No Intervención,Hombre,Sin Dato,AGUSTIN CODAZZI,0.69314718,Ascenso,0,,,,0,0,1,1
331006,,1997,3,24,20178,CHIRIGUANA,CESAR,SERRANIA DEL PERIJA,DESCONOCIDA,GUERRILLA,ELN,0,0,0,0,0,0,0,0,0,,,1,INDIVIDUAL,EXTORSIVO,ECONÓMICA,,9.426648354,-73.547978944,372438,MUJER,,AMA DE CASA,CIVIL,,,,,LIBERADO,,RESCATE,,0,,No_GAULA,Matched (3),24mar1997,1997m3,Rescate,ELN,Vulnerable,Caribe,Desconocido,Individual,No Intervención,Mujer,Sin Dato,CHIRIGUANA,0.0,Ascenso,0,,,,0,0,1,1
331072,,1997,4,20,44855,URUMITA,LA GUAJIRA,SERRANIA DEL PERIJA,DESCONOCIDA,GUERRILLA,FARC,0,0,0,0,0,0,0,0,0,,,1,INDIVIDUAL,EXTORSIVO,ECONÓMICA,,10.494702101,-72.986239906,372504,HOMBRE,,SIN INFORMACIÓN,CIVIL,,,,,LIBERADO,,PAGO,,0,,No_GAULA,Matched (3),20apr1997,1997m4,Pago,FARC,Desconocido,Caribe,Desconocido,Individual,No Intervención,Hombre,Sin Dato,URUMITA,0.0,Ascenso,0,,,,0,0,1,1
331135,,1997,5,18,68444,MATANZA,SANTANDER,PROVINCIA DE SOTO,DESCONOCIDA,GUERRILLA,DISIDENCIA EPL,0,0,0,0,0,0,0,0,0,,,1,INDIVIDUAL,EXTORSIVO,POLÍTICA,,7.348778319,-73.054389973,372567,MUJER,,OTRA,CIVIL,,,,,LIBERADO,,PAGO - POR PRESIÓN/INTERMEDIACIÓN,,0,,No_GAULA,Matched (3),18may1997,1997m5,Pago,Delincuencia/Otro,Desconocido,Andina,Desconocido,Individual,No Intervención,Mujer,Sin Dato,MATANZA,0.0,Ascenso,0,,,,0,0,1,1
331240,,1997,6,18,5001,MEDELLIN,ANTIOQUIA,VALLE DE ABURRA,ASALTO,GUERRILLA,ERG,0,0,0,0,1,0,0,0,0,,,2,MÚLTIPLE,EXTORSIVO,ECONÓMICA,,6.257590259,-75.611031065,372672,HOMBRE,,COMERCIANTE,CIVIL,,,,,LIBERADO,,PAGO,180.0,0,ADULTEZ (29-59 AÑOS),GAULA,Matched (3),18jun1997,1997m6,Pago,ELN,Alto ($$$),Metrópolis,Ataque Directo,Grupal,Intervención GAULA,Hombre,Largo (>1m),MEDELLIN,0.69314718,Ascenso,1,0.0,180.0,0.0,0,0,1,1
331242,,1997,6,18,5101,CIUDAD BOLIVAR,ANTIOQUIA,SUROESTE ANTIOQUEÑO,ASALTO,GUERRILLA,ERG,0,0,0,0,0,1,0,0,0,,,1,INDIVIDUAL,EXTORSIVO,ECONÓMICA,,5.840995666,-76.010652526,372674,HOMBRE,,SIN INFORMACIÓN,CIVIL,,,,,LIBERADO,,PAGO,,1,,No_GAULA,Matched (3),18jun1997,1997m6,Pago,ELN,Desconocido,Andina,Ataque Directo,Individual,No Intervención,Hombre,Sin Dato,CIUDAD BOLIVAR,0.0,Ascenso,0,,,,0,0,1,1
331346,,1997,7,19,27050,ATRATO,CHOCO,ATRATO,INTERCEPTACIÓN,GUERRILLA,ELN,0,0,0,0,0,0,0,1,0,,,6,COLECTIVO,EXTORSIVO,ECONÓMICA,,5.525825084,-76.650643569,372777,HOMBRE,,EMPLEADO,CIVIL,,,,,LIBERADO,,RESCATE,3.0,1,,No_GAULA,Matched (3),19jul1997,1997m7,Rescate,ELN,Clase Media,Pacífico/Roja,Ataque Directo,Grupal,No Intervención,Hombre,Corto (1m),ATRATO,1.7917595,Ascenso,1,0.0,3.0,0.0,0,0,1,1
331346,,1997,7,19,27050,ATRATO,CHOCO,ATRATO,INTERCEPTACIÓN,GUERRILLA,ELN,0,0,0,0,0,0,0,1,0,,,6,COLECTIVO,EXTORSIVO,ECONÓMICA,,5.525825084,-76.650643569,372781,HOMBRE,,EMPLEADO,CIVIL,,,,,LIBERADO,,RESCATE,3.0,1,,No_GAULA,Matched (3),19jul1997,1997m7,Rescate,ELN,Clase Media,Pacífico/Roja,Ataque Directo,Grupal,No Intervención,Hombre,Corto (1m),ATRATO,1.7917595,Ascenso,1,0.0,3.0,0.0,0,0,1,1
331346,,1997,7,19,27050,ATRATO,CHOCO,ATRATO,INTERCEPTACIÓN,GUERRILLA,ELN,0,0,0,0,0,0,0,1,0,,,6,COLECTIVO,EXTORSIVO,ECONÓMICA,,5.525825084,-76.650643569,372780,HOMBRE,,PROFESIONAL,CIVIL,,,,,LIBERADO,,RESCATE,,0,,No_GAULA,Matched (3),19jul1997,1997m7,Rescate,ELN,Clase Media,Pacífico/Roja,Ataque Directo,Grupal,No Intervención,Hombre,Sin Dato,ATRATO,1.7917595,Ascenso,0,,,,0,0,1,1
331346,,1997,7,19,27050,ATRATO,CHOCO,ATRATO,INTERCEPTACIÓN,GUERRILLA,ELN,0,0,0,0,0,0,0,1,0,,,6,COLECTIVO,EXTORSIVO,ECONÓMICA,,5.525825084,-76.650643569,372778,HOMBRE,,PROFESIONAL,CIVIL,,,,,LIBERADO,,RESCATE,3.0,1,,No_GAULA,Matched (3),19jul1997,1997m7,Rescate,ELN,Clase Media,Pacífico/Roja,Ataque Directo,Grupal,No Intervención,Hombre,Corto (1m),ATRATO,1.7917595,Ascenso,1,0.0,3.0,0.0,0,0,1,1
331383,,1997,7,31,52227,CUMBAL,NARIÑO,SUR DE NARIÑO,CITACIÓN,GUERRILLA,ELN,0,0,0,0,0,0,0,0,0,,,1,INDIVIDUAL,EXTORSIVO,POLÍTICA,,0.944223274,-77.959584455,372815,HOMBRE,,FUNCIONARIO PÚBLICO,CIVIL,ALCALDE,,,,LIBERADO,,POR PRESIÓN/INTERMEDIACIÓN,12.0,1,,No_GAULA,Matched (3),31jul1997,1997m7,Fuga o Liberación,ELN,Sector Público,Sin región,Engaño,Individual,No Intervención,Hombre,Corto (1m),CUMBAL,0.0,Ascenso,1,0.0,12.0,0.0,0,0,1,1
331662,,1997,9,10,27245,EL CARMEN DE ATRATO,CHOCO,ATRATO,ASALTO,GUERRILLA,ERG,0,0,0,0,0,0,0,0,0,,,1,INDIVIDUAL,EXTORSIVO,ECONÓMICA,,5.810938364,-76.191894424,373094,HOMBRE,,SIN INFORMACIÓN,CIVIL,,,,,LIBERADO,,PAGO,53.0,1,ADULTEZ (29-59 AÑOS),No_GAULA,Matched (3),10sep1997,1997m9,Pago,ELN,Desconocido,Pacífico/Roja,Ataque Directo,Individual,No Intervención,Hombre,Largo (>1m),EL CARMEN DE ATRATO,0.0,Ascenso,1,0.0,53.0,0.0,0,0,1,1
331709,,1997,9,19,5001,MEDELLIN,ANTIOQUIA,VALLE DE ABURRA,DESCONOCIDA,GUERRILLA,ELN,0,0,0,0,0,0,0,0,0,,,1,INDIVIDUAL,EXTORSIVO,ECONÓMICA,,6.257590259,-75.611031065,373141,HOMBRE,,COMERCIANTE,CIVIL,,,,,LIBERADO,,RESCATE,,0,,GAULA,Matched (3),19sep1997,1997m9,Rescate,ELN,Alto ($$$),Metrópolis,Desconocido,Individual,Intervención GAULA,Hombre,Sin Dato,MEDELLIN,0.0,Ascenso,0,,,,0,0,1,1
331944,CR020749,1997,11,7,76001,SANTIAGO DE CALI,VALLE DEL CAUCA,SUR DEL VALLE,INTERCEPTACIÓN,GUERRILLA,FARC,0,0,0,0,0,0,0,0,0,,,1,INDIVIDUAL,EXTORSIVO,ECONÓMICA,,3.399043723,-76.576492589,373376,HOMBRE,,PROFESIONAL,CIVIL,,,,,LIBERADO,,PAGO,60.0,0,ADULTEZ (29-59 AÑOS),GAULA,Matched (3),07nov1997,1997m11,Pago,FARC,Clase Media,Metrópolis,Ataque Directo,Individual,Intervención GAULA,Hombre,Largo (>1m),SANTIAGO DE CALI,0.0,Ascenso,1,0.0,60.0,0.0,0,0,1,1
331982,,1997,11,22,5091,BETANIA,ANTIOQUIA,SUROESTE ANTIOQUEÑO,ASALTO,GUERRILLA,ERG,0,0,0,0,0,0,0,0,0,,,1,INDIVIDUAL,EXTORSIVO,ECONÓMICA,,5.727081285,-75.986891074,373414,MUJER,,SIN INFORMACIÓN,CIVIL,,,,,LIBERADO,,PAGO,38.0,1,JUVENTUD (18-28 AÑOS),No_GAULA,Matched (3),22nov1997,1997m11,Pago,ELN,Desconocido,Andina,Ataque Directo,Individual,No Intervención,Mujer,Largo (>1m),BETANIA,0.0,Ascenso,1,0.0,38.0,0.0,0,0,1,1
332193,,1998,1,9,20400,LA JAGUA DE IBIRICO,CESAR,SERRANIA DEL PERIJA,DESCONOCIDA,GUERRILLA,ELN,0,0,0,0,0,0,0,0,0,,,1,INDIVIDUAL,EXTORSIVO,ECONÓMICA,,9.52099808,-73.322493379,373625,HOMBRE,,SIN INFORMACIÓN,CIVIL,,,,,LIBERADO,,PAGO - POR PRESIÓN/INTERMEDIACIÓN,,0,ADULTEZ (29-59 AÑOS),No_GAULA,Matched (3),09jan1998,1998m1,Pago,ELN,Desconocido,Caribe,Desconocido,Individual,No Intervención,Hombre,Sin Dato,LA JAGUA DE IBIRICO,0.0,Crisis/Caguán,0,,,,0,0,1,1
332252,,1998,1,24,41020,ALGECIRAS,HUILA,CENTRO DEL HUILA,ASALTO,GUERRILLA,FARC,0,0,0,0,0,0,0,0,0,,,1,INDIVIDUAL,EXTORSIVO,ECONÓMICA,,2.49785068,-75.291349457,373684,HOMBRE,,COMERCIANTE,CIVIL,,,,,LIBERADO,,PAGO,120.0,0,,No_GAULA,Matched (3),24jan1998,1998m1,Pago,FARC,Alto ($$$),Andina,Ataque Directo,Individual,No Intervención,Hombre,Largo (>1m),ALGECIRAS,0.0,Crisis/Caguán,1,0.0,120.0,0.0,0,0,1,1
332280,,1998,1,30,13549,PINILLOS,BOLIVAR,SUR DE BOLIVAR,ASALTO,GUERRILLA,DISIDENCIA ELN,0,0,0,0,0,0,0,0,0,,,2,MÚLTIPLE,EXTORSIVO,ECONÓMICA,,8.886315511,-74.408884758,373712,HOMBRE,,SIN INFORMACIÓN,CIVIL,,,,,LIBERADO,,PAGO,,0,JUVENTUD (18-28 AÑOS),No_GAULA,Matched (3),30jan1998,1998m1,Pago,ELN,Desconocido,Caribe,Ataque Directo,Grupal,No Intervención,Hombre,Sin Dato,PINILLOS,0.69314718,Crisis/Caguán,0,,,,0,0,1,1
332323,,1998,2,8,76834,TULUA,VALLE DEL CAUCA,CENTRO DEL VALLE,ASALTO,GUERRILLA,ELN,0,0,0,0,0,0,0,0,0,,,1,INDIVIDUAL,EXTORSIVO,ECONÓMICA,,4.02840797,-76.032503793,373755,HOMBRE,,COMERCIANTE,CIVIL,,,,,LIBERADO,,PAGO,95.0,0,PERSONA MAYOR (60 AÑOS O MAS),GAULA,Matched (3),08feb1998,1998m2,Pago,ELN,Alto ($$$),Pacífico/Roja,Ataque Directo,Individual,Intervención GAULA,Hombre,Largo (>1m),TULUA,0.0,Crisis/Caguán,1,0.0,95.0,0.0,0,0,1,1
332346,,1998,2,13,13657,SAN JUAN NEPOMUCENO,BOLIVAR,MONTES DE MARIA,DESCONOCIDA,GUERRILLA,FARC,0,0,0,0,0,0,0,0,0,,,1,INDIVIDUAL,EXTORSIVO,ECONÓMICA,,9.967957823,-75.065719587,373778,HOMBRE,,ADMINISTRADOR DE FINCA,CIVIL,,,,,LIBERADO,,PAGO - POR PRESIÓN/INTERMEDIACIÓN,,0,ADULTEZ (29-59 AÑOS),No_GAULA,Matched (3),13feb1998,1998m2,Pago,FARC,Clase Media,Caribe,Desconocido,Individual,No Intervención,Hombre,Sin Dato,SAN JUAN NEPOMUCENO,0.0,Crisis/Caguán,0,,,,0,0,1,1
332366,,1998,2,17,68255,EL PLAYON,SANTANDER,PROVINCIA DE SOTO,INCURSIÓN,GUERRILLA,DISIDENCIA EPL,0,0,0,0,0,0,0,0,0,,,1,INDIVIDUAL,EXTORSIVO,ND,,7.524284721,-73.181581916,373798,MUJER,,EMPLEADO,CIVIL,MAESTRO O EDUCADOR,,,,LIBERADO,,RESCATE,4.0,0,,No_GAULA,Matched (3),17feb1998,1998m2,Rescate,Delincuencia/Otro,Clase Media,Andina,Incursión Militar,Individual,No Intervención,Mujer,Corto (1m),EL PLAYON,0.0,Crisis/Caguán,1,0.0,4.0,0.0,0,0,1,1
332400,,1998,2,24,54001,CUCUTA,NORTE DE SANTANDER,AREA METROPOLITANA DE CUCUTA,DESCONOCIDA,GUERRILLA,ELN,0,0,0,0,0,0,0,0,0,,,1,INDIVIDUAL,EXTORSIVO,ECONÓMICA,,8.112041811,-72.488626408,373832,HOMBRE,,COMERCIANTE,CIVIL,,,,,LIBERADO,,PAGO,,0,,GAULA,Matched (3),24feb1998,1998m2,Pago,ELN,Alto ($$$),Metrópolis,Desconocido,Individual,Intervención GAULA,Hombre,Sin Dato,CUCUTA,0.0,Crisis/Caguán,0,,,,0,0,1,1
332467,,1998,3,2,27245,EL CARMEN DE ATRATO,CHOCO,ATRATO,DESCONOCIDA,GUERRILLA,ERG,0,0,0,0,0,0,0,0,0,,,3,MÚLTIPLE,EXTORSIVO,ECONÓMICA,,5.810938364,-76.191894424,373885,HOMBRE,,SIN INFORMACIÓN,CIVIL,,,,,LIBERADO,,PAGO,180.0,1,ADULTEZ (29-59 AÑOS),No_GAULA,Matched (3),02mar1998,1998m3,Pago,ELN,Desconocido,Pacífico/Roja,Desconocido,Grupal,No Intervención,Hombre,Largo (>1m),EL CARMEN DE ATRATO,1.0986123,Crisis/Caguán,1,0.0,180.0,0.0,0,0,1,1
332467,,1998,3,2,27245,EL CARMEN DE ATRATO,CHOCO,ATRATO,DESCONOCIDA,GUERRILLA,ERG,0,0,0,0,0,0,0,0,0,,,3,MÚLTIPLE,EXTORSIVO,ECONÓMICA,,5.810938364,-76.191894424,373899,HOMBRE,,ADMINISTRADOR DE FINCA,CIVIL,,,,,LIBERADO,,PAGO,180.0,1,ADULTEZ (29-59 AÑOS),No_GAULA,Matched (3),02mar1998,1998m3,Pago,ELN,Clase Media,Pacífico/Roja,Desconocido,Grupal,No Intervención,Hombre,Largo (>1m),EL CARMEN DE ATRATO,1.0986123,Crisis/Caguán,1,0.0,180.0,0.0,0,0,1,1
332467,,1998,3,2,27245,EL CARMEN DE ATRATO,CHOCO,ATRATO,DESCONOCIDA,GUERRILLA,ERG,0,0,0,0,0,0,0,0,0,,,3,MÚLTIPLE,EXTORSIVO,ECONÓMICA,,5.810938364,-76.191894424,373898,HOMBRE,,ADMINISTRADOR DE FINCA,CIVIL,,,,,LIBERADO,,PAGO,180.0,1,ADULTEZ (29-59 AÑOS),No_GAULA,Matched (3),02mar1998,1998m3,Pago,ELN,Clase Media,Pacífico/Roja,Desconocido,Grupal,No Intervención,Hombre,Largo (>1m),EL CARMEN DE ATRATO,1.0986123,Crisis/Caguán,1,0.0,180.0,0.0,0,0,1,1
332636,,1998,3,20,5154,CAUCASIA,ANTIOQUIA,BAJO CAUCA ANTIOQUEÑO,INTERCEPTACIÓN,GUERRILLA,ELN,0,0,0,0,0,0,0,0,0,,,1,INDIVIDUAL,EXTORSIVO,ECONÓMICA,,7.867941792,-75.035018239,374068,HOMBRE,,CAMPESINO,CIVIL,,,,,LIBERADO,,PAGO,,0,,No_GAULA,Matched (3),20mar1998,1998m3,Pago,ELN,Vulnerable,Andina,Ataque Directo,Individual,No Intervención,Hombre,Sin Dato,CAUCASIA,0.0,Crisis/Caguán,0,,,,0,0,1,1
332910,,1998,4,28,5480,MUTATA,ANTIOQUIA,URABA,DESCONOCIDA,GUERRILLA,FARC,0,0,0,0,0,0,0,0,0,,,1,COLECTIVO,EXTORSIVO,ECONÓMICA,,7.329557848,-76.463065695,374342,HOMBRE,,COMERCIANTE,CIVIL,,,,,LIBERADO,,FUGA,,0,,No_GAULA,Matched (3),28apr1998,1998m4,Fuga o Liberación,FARC,Alto ($$$),Andina,Desconocido,Grupal,No Intervención,Hombre,Sin Dato,MUTATA,0.0,Crisis/Caguán,0,,,,0,0,1,1
333022,,1998,5,20,5034,ANDES,ANTIOQUIA,SUROESTE ANTIOQUEÑO,ASALTO,GUERRILLA,ERG,0,1,0,0,0,1,0,0,0,,,1,INDIVIDUAL,EXTORSIVO,ECONÓMICA,,5.604993248,-75.941283908,374454,HOMBRE,,SIN INFORMACIÓN,CIVIL,,,,,LIBERADO,,PAGO,60.0,1,PERSONA MAYOR (60 AÑOS O MAS),No_GAULA,Matched (3),20may1998,1998m5,Pago,ELN,Desconocido,Andina,Ataque Directo,Individual,No Intervención,Hombre,Largo (>1m),ANDES,0.0,Crisis/Caguán,1,0.0,60.0,0.0,0,0,1,1
333037,,1998,5,22,5088,BELLO,ANTIOQUIA,VALLE DE ABURRA,INTERCEPTACIÓN,GUERRILLA,FARC,0,0,0,0,0,0,0,0,0,,,1,INDIVIDUAL,EXTORSIVO,ECONÓMICA,,6.358841086,-75.589735878,374469,HOMBRE,,CAMPESINO,CIVIL,,,,,LIBERADO,,PAGO,,0,,No_GAULA,Matched (3),22may1998,1998m5,Pago,FARC,Vulnerable,Metrópolis,Ataque Directo,Individual,No Intervención,Hombre,Sin Dato,BELLO,0.0,Crisis/Caguán,0,,,,0,0,1,1
333071,,1998,5,28,20001,VALLEDUPAR,CESAR,SIERRA NEVADA DE SANTA MARTA,DESCONOCIDA,GUERRILLA,ELN,0,0,0,0,0,0,0,0,0,,,1,COLECTIVO,EXTORSIVO,ECONÓMICA,,10.218902768,-73.457847638,374503,HOMBRE,,SIN INFORMACIÓN,CIVIL,,,,,LIBERADO,,RESCATE,,0,,GAULA,Matched (3),28may1998,1998m5,Rescate,ELN,Desconocido,Caribe,Desconocido,Grupal,Intervención GAULA,Hombre,Sin Dato,VALLEDUPAR,0.0,Crisis/Caguán,0,,,,0,0,1,1
333508,,1998,8,3,27001,QUIBDO,CHOCO,ATRATO,DESCONOCIDA,GUERRILLA,FARC,0,0,0,0,0,0,0,0,0,,,4,INDIVIDUAL,EXTORSIVO,ND,,5.7543229,-76.65015147,567132,HOMBRE,,FUERZA PÚBLICA,COMBATIENTE,,,AGENTE DEL ESTADO,EJÉRCITO NACIONAL,LIBERADO,,CANJE,1056.0,1,,GAULA,Matched (3),03aug1998,1998m8,Pago,FARC,Sector Público,Pacífico/Roja,Desconocido,Individual,Intervención GAULA,Hombre,Largo (>1m),QUIBDO,1.3862944,Crisis/Caguán,1,0.0,1056.0,0.0,0,0,1,1
333508,,1998,8,3,27001,QUIBDO,CHOCO,ATRATO,DESCONOCIDA,GUERRILLA,FARC,0,0,0,0,0,0,0,0,0,,,4,INDIVIDUAL,EXTORSIVO,ND,,5.7543229,-76.65015147,374940,HOMBRE,"NEGRO(A), MULATO(A), AFRODESCENDIENTE, AFROCOLOMBIANO(A)",FUERZA PÚBLICA,COMBATIENTE,,,AGENTE DEL ESTADO,EJÉRCITO NACIONAL,LIBERADO,,CANJE,1056.0,1,JUVENTUD (18-28 AÑOS),GAULA,Matched (3),03aug1998,1998m8,Pago,FARC,Sector Público,Pacífico/Roja,Desconocido,Individual,Intervención GAULA,Hombre,Largo (>1m),QUIBDO,1.3862944,Crisis/Caguán,1,0.0,1056.0,0.0,0,0,1,1
333508,,1998,8,3,27001,QUIBDO,CHOCO,ATRATO,DESCONOCIDA,GUERRILLA,FARC,0,0,0,0,0,0,0,0,0,,,4,INDIVIDUAL,EXTORSIVO,ND,,5.7543229,-76.65015147,567168,HOMBRE,,FUERZA PÚBLICA,COMBATIENTE,,,AGENTE DEL ESTADO,EJÉRCITO NACIONAL,LIBERADO,,CANJE,1061.0,1,,GAULA,Matched (3),03aug1998,1998m8,Pago,FARC,Sector Público,Pacífico/Roja,Desconocido,Individual,Intervención GAULA,Hombre,Largo (>1m),QUIBDO,1.3862944,Crisis/Caguán,1,0.0,1061.0,0.0,0,0,1,1
333712,,1998,8,18,25322,GUASCA,CUNDINAMARCA,ALTIPLANO CUNDIBOYACENSE,DESCONOCIDA,GUERRILLA,FARC,0,0,0,0,0,0,0,0,0,,,1,INDIVIDUAL,EXTORSIVO,ECONÓMICA,,4.801276832,-73.846434852,375144,HOMBRE,,PROFESIONAL,CIVIL,,,,,LIBERADO,,FUGA,,0,,No_GAULA,Matched (3),18aug1998,1998m8,Fuga o Liberación,FARC,Clase Media,Andina,Desconocido,Individual,No Intervención,Hombre,Sin Dato,GUASCA,0.0,Crisis/Caguán,0,,,,0,0,1,1
333755,,1998,8,23,73124,CAJAMARCA,TOLIMA,NORTE DEL TOLIMA,DESCONOCIDA,GUERRILLA,FARC,0,0,0,0,0,0,0,0,0,,,1,INDIVIDUAL,EXTORSIVO,ECONÓMICA,,4.406971283,-75.497459183,375187,HOMBRE,,FUERZA PÚBLICA,COMBATIENTE,,,AGENTE DEL ESTADO,POLICÍA NACIONAL,LIBERADO,,PAGO,,0,PERSONA MAYOR (60 AÑOS O MAS),No_GAULA,Matched (3),23aug1998,1998m8,Pago,FARC,Sector Público,Andina,Desconocido,Individual,No Intervención,Hombre,Sin Dato,CAJAMARCA,0.0,Crisis/Caguán,0,,,,0,0,1,1
333820,,1998,9,8,47001,SANTA MARTA,MAGDALENA,SIERRA NEVADA DE SANTA MARTA,INTERCEPTACIÓN,GRUPO PARAMILITAR,AUTODEFENSAS UNIDAS DE COLOMBIA AUC,0,0,0,0,0,0,0,0,0,,,1,INDIVIDUAL,EXTORSIVO,ECONÓMICA,,11.121894357,-73.885278551,375252,HOMBRE,,PROFESIONAL,CIVIL,,,,,LIBERADO,,PAGO - POR PRESIÓN/INTERMEDIACIÓN,,0,ADULTEZ (29-59 AÑOS),GAULA,Matched (3),08sep1998,1998m9,Pago,Paramilitares,Clase Media,Caribe,Ataque Directo,Individual,Intervención GAULA,Hombre,Sin Dato,SANTA MARTA,0.0,Crisis/Caguán,0,,,,0,0,1,1
333837,,1998,9,12,54720,SARDINATA,NORTE DE SANTANDER,CATATUMBO,ACCIÓN BÉLICA,GUERRILLA,ELN,0,0,0,0,0,0,0,0,0,,,1,COLECTIVO,EXTORSIVO,POLÍTICA,,8.4167490936,-73.3401444841,375269,HOMBRE,,FUERZA PÚBLICA,COMBATIENTE,,,AGENTE DEL ESTADO,POLICÍA NACIONAL,LIBERADO,,POR PRESIÓN/INTERMEDIACIÓN,810.0,1,JUVENTUD (18-28 AÑOS),No_GAULA,Matched (3),12sep1998,1998m9,Fuga o Liberación,ELN,Sector Público,Pacífico/Roja,Incursión Militar,Grupal,No Intervención,Hombre,Largo (>1m),SARDINATA,0.0,Crisis/Caguán,1,0.0,810.0,0.0,0,0,1,1
334009,,1998,10,10,54385,LA ESPERANZA,NORTE DE SANTANDER,PROVINCIA DE RICAURTE,DESCONOCIDA,GUERRILLA,DISIDENCIA EPL,0,0,0,0,0,0,0,0,0,,,9,COLECTIVO,EXTORSIVO,ND,,7.695233593,-73.361396723,398709,HOMBRE,,OTRA,CIVIL,,,,,LIBERADO,,RESCATE,,0,JUVENTUD (18-28 AÑOS),No_GAULA,Matched (3),10oct1998,1998m10,Rescate,Delincuencia/Otro,Desconocido,Pacífico/Roja,Desconocido,Grupal,No Intervención,Hombre,Sin Dato,LA ESPERANZA,2.1972246,Crisis/Caguán,0,,,,0,0,1,1
334009,,1998,10,10,54385,LA ESPERANZA,NORTE DE SANTANDER,PROVINCIA DE RICAURTE,DESCONOCIDA,GUERRILLA,DISIDENCIA EPL,0,0,0,0,0,0,0,0,0,,,9,COLECTIVO,EXTORSIVO,ND,,7.695233593,-73.361396723,375442,HOMBRE,,COMERCIANTE,CIVIL,,,,,LIBERADO,,RESCATE,,0,JUVENTUD (18-28 AÑOS),No_GAULA,Matched (3),10oct1998,1998m10,Rescate,Delincuencia/Otro,Alto ($$$),Pacífico/Roja,Desconocido,Grupal,No Intervención,Hombre,Sin Dato,LA ESPERANZA,2.1972246,Crisis/Caguán,0,,,,0,0,1,1
334016,,1998,10,10,20517,PAILITAS,CESAR,SUR DE CESAR,RETÉN,GUERRILLA,DISIDENCIA EPL,0,0,0,0,0,0,0,0,0,,,1,INDIVIDUAL,EXTORSIVO,ECONÓMICA,,8.938916143,-73.572472125,375448,HOMBRE,,CONDUCTOR/MOTORISTA,CIVIL,,,,,LIBERADO,,RESCATE,,0,ADULTEZ (29-59 AÑOS),No_GAULA,Matched (3),10oct1998,1998m10,Rescate,Delincuencia/Otro,Vulnerable,Caribe,Retén (Azar),Individual,No Intervención,Hombre,Sin Dato,PAILITAS,0.0,Crisis/Caguán,0,,,,0,0,1,1
334027,,1998,10,10,20517,PAILITAS,CESAR,SUR DE CESAR,RETÉN,GUERRILLA,DISIDENCIA EPL,0,0,0,0,0,0,0,0,0,,,1,INDIVIDUAL,EXTORSIVO,ECONÓMICA,,8.938916143,-73.572472125,375459,HOMBRE,,CONDUCTOR/MOTORISTA,CIVIL,,,,,LIBERADO,,RESCATE,,0,,No_GAULA,Matched (3),10oct1998,1998m10,Rescate,Delincuencia/Otro,Vulnerable,Caribe,Retén (Azar),Individual,No Intervención,Hombre,Sin Dato,PAILITAS,0.0,Crisis/Caguán,0,,,,0,0,1,1
334388,CR080250,1998,12,6,76834,TULUA,VALLE DEL CAUCA,CENTRO DEL VALLE,INCURSIÓN,GUERRILLA,FARC/ELN,0,0,0,0,0,0,0,0,0,,,1,MÚLTIPLE,EXTORSIVO,ECONÓMICA,,4.02840797,-76.032503793,375820,HOMBRE,,PROFESIONAL,CIVIL,,,,,LIBERADO,,PAGO,8.0,1,ADULTEZ (29-59 AÑOS),GAULA,Matched (3),06dec1998,1998m12,Pago,ELN,Clase Media,Pacífico/Roja,Incursión Militar,Grupal,Intervención GAULA,Hombre,Corto (1m),TULUA,0.0,Crisis/Caguán,1,0.0,8.0,0.0,0,0,1,1
334477,,1998,12,29,54001,CUCUTA,NORTE DE SANTANDER,AREA METROPOLITANA DE CUCUTA,DESCONOCIDA,GUERRILLA,DISIDENCIA EPL,0,0,0,0,0,0,0,0,0,,,2,MÚLTIPLE,EXTORSIVO,ECONÓMICA,,8.112041811,-72.488626408,375909,HOMBRE,,FUERZA PÚBLICA,COMBATIENTE,,,AGENTE EXTRANJERO,VENEZOLANO,LIBERADO,,RESCATE,,0,,GAULA,Matched (3),29dec1998,1998m12,Rescate,Delincuencia/Otro,Sector Público,Metrópolis,Desconocido,Grupal,Intervención GAULA,Hombre,Sin Dato,CUCUTA,0.69314718,Crisis/Caguán,0,,,,0,0,1,1
334631,,1999,1,20,76001,SANTIAGO DE CALI,VALLE DEL CAUCA,SUR DEL VALLE,DESCONOCIDA,GUERRILLA,ELN,0,0,0,0,0,0,0,0,0,,,1,INDIVIDUAL,EXTORSIVO,ECONÓMICA,,3.399043723,-76.576492589,376063,HOMBRE,,ESTUDIANTE,CIVIL,,,,,LIBERADO,,RESCATE,,0,,GAULA,Matched (3),20jan1999,1999m1,Rescate,ELN,Clase Media,Metrópolis,Desconocido,Individual,Intervención GAULA,Hombre,Sin Dato,SANTIAGO DE CALI,0.0,Crisis/Caguán,0,,,,0,0,1,1
334639,,1999,1,21,27245,EL CARMEN DE ATRATO,CHOCO,ATRATO,INTERCEPTACIÓN,GUERRILLA,ERG,0,0,0,0,0,0,0,0,0,,,1,INDIVIDUAL,EXTORSIVO,ECONÓMICA,,5.810938364,-76.191894424,376071,HOMBRE,,SIN INFORMACIÓN,CIVIL,FAMILIAR DE PERSONA VULNERABLE,,,,LIBERADO,,PAGO,150.0,1,ADULTEZ (29-59 AÑOS),No_GAULA,Matched (3),21jan1999,1999m1,Pago,ELN,Desconocido,Pacífico/Roja,Ataque Directo,Individual,No Intervención,Hombre,Largo (>1m),EL CARMEN DE ATRATO,0.0,Crisis/Caguán,1,0.0,150.0,0.0,0,0,1,1
334675,,1999,1,28,5001,MEDELLIN,ANTIOQUIA,VALLE DE ABURRA,ASALTO,GRUPO PARAMILITAR,AUTODEFENSAS UNIDAS DE COLOMBIA AUC,0,0,0,0,0,0,0,0,0,,,4,COLECTIVO,EXTORSIVO,POLÍTICA,,6.257590259,-75.611031065,376107,MUJER,,EMPLEADO,CIVIL,DEFENSOR DE DDHH,,,,LIBERADO,,POR PRESIÓN/INTERMEDIACIÓN,11.0,1,,GAULA,Matched (3),28jan1999,1999m1,Fuga o Liberación,Paramilitares,Clase Media,Metrópolis,Ataque Directo,Grupal,Intervención GAULA,Mujer,Corto (1m),MEDELLIN,1.3862944,Crisis/Caguán,1,0.0,11.0,0.0,0,0,1,1
334730,,1999,2,9,5034,ANDES,ANTIOQUIA,SUROESTE ANTIOQUEÑO,ASALTO,GUERRILLA,ERG,0,0,0,0,0,0,0,0,0,,,2,COLECTIVO,EXTORSIVO,ECONÓMICA,,5.604993248,-75.941283908,376162,HOMBRE,,COMERCIANTE,CIVIL,,,,,LIBERADO,,PAGO,40.0,1,,No_GAULA,Matched (3),09feb1999,1999m2,Pago,ELN,Alto ($$$),Andina,Ataque Directo,Grupal,No Intervención,Hombre,Largo (>1m),ANDES,0.69314718,Crisis/Caguán,1,0.0,40.0,0.0,0,0,1,1
334730,,1999,2,9,5034,ANDES,ANTIOQUIA,SUROESTE ANTIOQUEÑO,ASALTO,GUERRILLA,ERG,0,0,0,0,0,0,0,0,0,,,2,COLECTIVO,EXTORSIVO,ECONÓMICA,,5.604993248,-75.941283908,376165,HOMBRE,,SIN INFORMACIÓN,CIVIL,,,,,LIBERADO,,PAGO,40.0,1,,No_GAULA,Matched (3),09feb1999,1999m2,Pago,ELN,Desconocido,Andina,Ataque Directo,Grupal,No Intervención,Hombre,Largo (>1m),ANDES,0.69314718,Crisis/Caguán,1,0.0,40.0,0.0,0,0,1,1
334783,,1999,2,15,5002,ABEJORRAL,ANTIOQUIA,ORIENTE ANTIOQUEÑO,DESCONOCIDA,GRUPO PARAMILITAR,AUTODEFENSAS UNIDAS DE COLOMBIA AUC,0,0,0,0,0,0,0,0,0,,,9,COLECTIVO,EXTORSIVO,ND,,5.803728154,-75.438473525,376220,HOMBRE,,FUNCIONARIO PÚBLICO,COMBATIENTE,FUNCIONARIO JUDICIAL,,AGENTE DEL ESTADO,POLICÍA NACIONAL,LIBERADO,,PAGO - POR PRESIÓN/INTERMEDIACIÓN,,0,ADULTEZ (29-59 AÑOS),No_GAULA,Matched (3),15feb1999,1999m2,Pago,Paramilitares,Sector Público,Andina,Desconocido,Grupal,No Intervención,Hombre,Sin Dato,ABEJORRAL,2.1972246,Crisis/Caguán,0,,,,0,0,1,1
334783,,1999,2,15,5002,ABEJORRAL,ANTIOQUIA,ORIENTE ANTIOQUEÑO,DESCONOCIDA,GRUPO PARAMILITAR,AUTODEFENSAS UNIDAS DE COLOMBIA AUC,0,0,0,0,0,0,0,0,0,,,9,COLECTIVO,EXTORSIVO,ND,,5.803728154,-75.438473525,376221,HOMBRE,,FUNCIONARIO PÚBLICO,COMBATIENTE,FUNCIONARIO JUDICIAL,,AGENTE DEL ESTADO,POLICÍA NACIONAL,LIBERADO,,PAGO - POR PRESIÓN/INTERMEDIACIÓN,,0,,No_GAULA,Matched (3),15feb1999,1999m2,Pago,Paramilitares,Sector Público,Andina,Desconocido,Grupal,No Intervención,Hombre,Sin Dato,ABEJORRAL,2.1972246,Crisis/Caguán,0,,,,0,0,1,1
334783,,1999,2,15,5002,ABEJORRAL,ANTIOQUIA,ORIENTE ANTIOQUEÑO,DESCONOCIDA,GRUPO PARAMILITAR,AUTODEFENSAS UNIDAS DE COLOMBIA AUC,0,0,0,0,0,0,0,0,0,,,9,COLECTIVO,EXTORSIVO,ND,,5.803728154,-75.438473525,376215,HOMBRE,,FUNCIONARIO PÚBLICO,COMBATIENTE,FUNCIONARIO JUDICIAL,,AGENTE DEL ESTADO,POLICÍA NACIONAL,LIBERADO,,PAGO - POR PRESIÓN/INTERMEDIACIÓN,,0,JUVENTUD (18-28 AÑOS),No_GAULA,Matched (3),15feb1999,1999m2,Pago,Paramilitares,Sector Público,Andina,Desconocido,Grupal,No Intervención,Hombre,Sin Dato,ABEJORRAL,2.1972246,Crisis/Caguán,0,,,,0,0,1,1
334783,,1999,2,15,5002,ABEJORRAL,ANTIOQUIA,ORIENTE ANTIOQUEÑO,DESCONOCIDA,GRUPO PARAMILITAR,AUTODEFENSAS UNIDAS DE COLOMBIA AUC,0,0,0,0,0,0,0,0,0,,,9,COLECTIVO,EXTORSIVO,ND,,5.803728154,-75.438473525,376222,HOMBRE,,FUNCIONARIO PÚBLICO,COMBATIENTE,,,AGENTE DEL ESTADO,DAS,LIBERADO,,PAGO - POR PRESIÓN/INTERMEDIACIÓN,,0,ADULTEZ (29-59 AÑOS),No_GAULA,Matched (3),15feb1999,1999m2,Pago,Paramilitares,Sector Público,Andina,Desconocido,Grupal,No Intervención,Hombre,Sin Dato,ABEJORRAL,2.1972246,Crisis/Caguán,0,,,,0,0,1,1
334783,,1999,2,15,5002,ABEJORRAL,ANTIOQUIA,ORIENTE ANTIOQUEÑO,DESCONOCIDA,GRUPO PARAMILITAR,AUTODEFENSAS UNIDAS DE COLOMBIA AUC,0,0,0,0,0,0,0,0,0,,,9,COLECTIVO,EXTORSIVO,ND,,5.803728154,-75.438473525,376218,HOMBRE,,FUNCIONARIO PÚBLICO,COMBATIENTE,,,AGENTE DEL ESTADO,DAS,LIBERADO,,FUGA,,0,,No_GAULA,Matched (3),15feb1999,1999m2,Fuga o Liberación,Paramilitares,Sector Público,Andina,Desconocido,Grupal,No Intervención,Hombre,Sin Dato,ABEJORRAL,2.1972246,Crisis/Caguán,0,,,,0,0,1,1
335136,,1999,4,10,5001,MEDELLIN,ANTIOQUIA,VALLE DE ABURRA,DESCONOCIDA,GRUPO ARMADO NO IDENTIFICADO,NO APLICA,0,0,0,0,0,0,0,0,0,,,2,INDIVIDUAL,EXTORSIVO,ECONÓMICA,,6.257590259,-75.611031065,376568,HOMBRE,,SIN INFORMACIÓN,CIVIL,,,,,LIBERADO,,PAGO,,0,,GAULA,Matched (3),10apr1999,1999m4,Pago,Delincuencia/Otro,Desconocido,Metrópolis,Desconocido,Individual,Intervención GAULA,Hombre,Sin Dato,MEDELLIN,0.69314718,Crisis/Caguán,0,,,,0,0,1,1
335150,,1999,4,11,76306,GINEBRA,VALLE DEL CAUCA,SUR DEL VALLE,DESCONOCIDA,GUERRILLA,FARC,0,0,0,0,0,0,0,0,0,,,1,INDIVIDUAL,EXTORSIVO,ECONÓMICA,,3.74410441,-76.19082004,376582,HOMBRE,,CONDUCTOR/MOTORISTA,CIVIL,,,,,LIBERADO,,FUGA,,0,,No_GAULA,Matched (3),11apr1999,1999m4,Fuga o Liberación,FARC,Vulnerable,Pacífico/Roja,Desconocido,Individual,No Intervención,Hombre,Sin Dato,GINEBRA,0.0,Crisis/Caguán,0,,,,0,0,1,1
335151,,1999,4,11,76306,GINEBRA,VALLE DEL CAUCA,SUR DEL VALLE,DESCONOCIDA,GUERRILLA,FARC,0,0,0,0,0,0,0,0,0,,,1,INDIVIDUAL,EXTORSIVO,ECONÓMICA,,3.74410441,-76.19082004,376583,HOMBRE,,SIN INFORMACIÓN,CIVIL,,,,,LIBERADO,,FUGA,,0,,No_GAULA,Matched (3),11apr1999,1999m4,Fuga o Liberación,FARC,Desconocido,Pacífico/Roja,Desconocido,Individual,No Intervención,Hombre,Sin Dato,GINEBRA,0.0,Crisis/Caguán,0,,,,0,0,1,1
335248,,1999,4,20,76001,SANTIAGO DE CALI,VALLE DEL CAUCA,SUR DEL VALLE,DESCONOCIDA,GRUPO ARMADO NO IDENTIFICADO,NO APLICA,0,0,0,0,0,0,0,0,0,,,1,INDIVIDUAL,EXTORSIVO,ND,,3.399043723,-76.576492589,376680,HOMBRE,,COMERCIANTE,CIVIL,,,,,LIBERADO,,PAGO - POR PRESIÓN/INTERMEDIACIÓN,,0,ADULTEZ (29-59 AÑOS),GAULA,Matched (3),20apr1999,1999m4,Pago,Delincuencia/Otro,Alto ($$$),Metrópolis,Desconocido,Individual,Intervención GAULA,Hombre,Sin Dato,SANTIAGO DE CALI,0.0,Crisis/Caguán,0,,,,0,0,1,1
335383,,1999,5,8,20001,VALLEDUPAR,CESAR,SIERRA NEVADA DE SANTA MARTA,DESCONOCIDA,GUERRILLA,ELN,0,0,0,0,0,0,0,0,0,,,1,INDIVIDUAL,EXTORSIVO,ECONÓMICA,,10.218902768,-73.457847638,376815,MUJER,,ESTUDIANTE,CIVIL,,,,,LIBERADO,,RESCATE,,0,,GAULA,Matched (3),08may1999,1999m5,Rescate,ELN,Clase Media,Caribe,Desconocido,Individual,Intervención GAULA,Mujer,Sin Dato,VALLEDUPAR,0.0,Crisis/Caguán,0,,,,0,0,1,1
335389,,1999,5,10,85162,MONTERREY,CASANARE,PIEDEMONTE LLANERO,DESCONOCIDA,DESCONOCIDO,NO APLICA,0,0,0,0,0,0,0,0,0,,,1,INDIVIDUAL,EXTORSIVO,ECONÓMICA,,4.841308642,-72.847343398,376821,HOMBRE,,SIN INFORMACIÓN,CIVIL,,,,,LIBERADO,,FUGA,,0,,No_GAULA,Matched (3),10may1999,1999m5,Fuga o Liberación,Delincuencia/Otro,Desconocido,Oriente/Selva,Desconocido,Individual,No Intervención,Hombre,Sin Dato,MONTERREY,0.0,Crisis/Caguán,0,,,,0,0,1,1
335479,,1999,5,24,5364,JARDIN,ANTIOQUIA,SUROESTE ANTIOQUEÑO,INTERCEPTACIÓN,GUERRILLA,ERG,0,0,0,0,0,0,0,0,0,,,1,INDIVIDUAL,EXTORSIVO,ECONÓMICA,,5.574444339,-75.818425748,376911,HOMBRE,,CAMPESINO,CIVIL,,,,,LIBERADO,,PAGO,162.0,1,,No_GAULA,Matched (3),24may1999,1999m5,Pago,ELN,Vulnerable,Andina,Ataque Directo,Individual,No Intervención,Hombre,Largo (>1m),JARDIN,0.0,Crisis/Caguán,1,0.0,162.0,0.0,0,0,1,1
335679,CR2017335679,1999,5,30,76001,SANTIAGO DE CALI,VALLE DEL CAUCA,SUR DEL VALLE,ASALTO,GUERRILLA,ELN,0,0,0,0,0,1,0,0,0,,,179,COLECTIVO,EXTORSIVO,ECONÓMICA,,3.414162,-76.521469,377091,HOMBRE,,PROFESIONAL,CIVIL,,,,,LIBERADO,,RESCATE,,0,,GAULA,Matched (3),30may1999,1999m5,Rescate,ELN,Clase Media,Metrópolis,Ataque Directo,Grupal,Intervención GAULA,Hombre,Sin Dato,SANTIAGO DE CALI,5.187386,Crisis/Caguán,0,,,,0,0,1,1
335838,,1999,6,18,25612,RICAURTE,CUNDINAMARCA,SUROCCIDENTE DE CUNDINAMARCA,DESCONOCIDA,GUERRILLA,ELN,0,0,0,0,0,0,0,0,0,,,1,MÚLTIPLE,EXTORSIVO,ECONÓMICA,,4.307363489,-74.729434034,377270,HOMBRE,,COMERCIANTE,CIVIL,,,,,LIBERADO,,RESCATE,,0,,No_GAULA,Matched (3),18jun1999,1999m6,Rescate,ELN,Alto ($$$),Andina,Desconocido,Grupal,No Intervención,Hombre,Sin Dato,RICAURTE,0.0,Crisis/Caguán,0,,,,0,0,1,1
335872,,1999,6,22,23466,MONTELIBANO,CORDOBA,ALTO SINU Y SAN JORGE,DESCONOCIDA,GUERRILLA,FARC,0,0,0,0,0,0,0,0,0,,,1,INDIVIDUAL,EXTORSIVO,ECONÓMICA,,7.866432635,-75.875339255,377304,HOMBRE,,FUERZA PÚBLICA,COMBATIENTE,,,AGENTE DEL ESTADO,EJÉRCITO NACIONAL,LIBERADO,,RESCATE,1413.0,1,ADULTEZ (29-59 AÑOS),No_GAULA,Matched (3),22jun1999,1999m6,Rescate,FARC,Sector Público,Caribe,Desconocido,Individual,No Intervención,Hombre,Largo (>1m),MONTELIBANO,0.0,Crisis/Caguán,1,0.0,1413.0,0.0,0,0,1,1
335981,,1999,7,10,50590,PUERTO RICO,META,ARIARI GUAYABERO,DESCONOCIDA,GUERRILLA,FARC,0,0,0,0,0,0,0,0,0,,,1,INDIVIDUAL,EXTORSIVO,ND,,2.758083657,-73.137801709,377413,HOMBRE,,FUERZA PÚBLICA,COMBATIENTE,,,AGENTE DEL ESTADO,POLICÍA NACIONAL,LIBERADO,,CANJE,706.0,1,,No_GAULA,Matched (3),10jul1999,1999m7,Pago,FARC,Sector Público,Oriente/Selva,Desconocido,Individual,No Intervención,Hombre,Largo (>1m),PUERTO RICO,0.0,Crisis/Caguán,1,0.0,706.0,0.0,0,0,1,1
336255,,1999,8,14,20001,VALLEDUPAR,CESAR,SIERRA NEVADA DE SANTA MARTA,DESCONOCIDA,GUERRILLA,FARC,0,0,0,0,0,0,0,0,0,,,1,INDIVIDUAL,EXTORSIVO,ECONÓMICA,,10.218902768,-73.457847638,377687,HOMBRE,,FUERZA PÚBLICA,COMBATIENTE,,,AGENTE DEL ESTADO,NO IDENTIFICADO,LIBERADO,,FUGA,,0,JUVENTUD (18-28 AÑOS),GAULA,Matched (3),14aug1999,1999m8,Fuga o Liberación,FARC,Sector Público,Caribe,Desconocido,Individual,Intervención GAULA,Hombre,Sin Dato,VALLEDUPAR,0.0,Crisis/Caguán,0,,,,0,0,1,1
336282,,1999,8,19,20310,GONZALEZ,CESAR,SUR DE CESAR,DESCONOCIDA,GUERRILLA,DISIDENCIA EPL,0,0,0,0,0,0,0,0,0,,,1,COLECTIVO,EXTORSIVO,ECONÓMICA,,8.405516522,-73.375373085,377714,HOMBRE,,SIN INFORMACIÓN,CIVIL,,,,,LIBERADO,,PAGO,28.0,0,,No_GAULA,Matched (3),19aug1999,1999m8,Pago,Delincuencia/Otro,Desconocido,Caribe,Desconocido,Grupal,No Intervención,Hombre,Corto (1m),GONZALEZ,0.0,Crisis/Caguán,1,0.0,28.0,0.0,0,0,1,1
336329,,1999,8,26,70001,SINCELEJO,SUCRE,MORROSQUILLO Y SABANAS DE SUCRE,DESCONOCIDA,GUERRILLA,FARC,0,0,0,0,0,0,0,0,0,,,1,INDIVIDUAL,EXTORSIVO,ECONÓMICA,,9.316673928,-75.431749665,377761,HOMBRE,,PROFESIONAL,CIVIL,,,,,LIBERADO,,RESCATE,,0,,GAULA,Matched (3),26aug1999,1999m8,Rescate,FARC,Clase Media,Caribe,Desconocido,Individual,Intervención GAULA,Hombre,Sin Dato,SINCELEJO,0.0,Crisis/Caguán,0,,,,0,0,1,1
336359,,1999,8,30,68001,BUCARAMANGA,SANTANDER,PROVINCIA DE SOTO,DESCONOCIDA,GUERRILLA,ELN,0,0,0,0,0,0,0,0,0,,,1,INDIVIDUAL,EXTORSIVO,ECONÓMICA,,7.155833544,-73.111569971,377791,MUJER,,COMERCIANTE,CIVIL,,,,,LIBERADO,,RESCATE,,0,,GAULA,Matched (3),30aug1999,1999m8,Rescate,ELN,Alto ($$$),Metrópolis,Desconocido,Individual,Intervención GAULA,Mujer,Sin Dato,BUCARAMANGA,0.0,Crisis/Caguán,0,,,,0,0,1,1
336390,,1999,9,3,17653,SALAMINA,CALDAS,EJE CAFETERO,DESCONOCIDA,GUERRILLA,FARC,0,0,0,0,0,0,0,0,0,,,1,INDIVIDUAL,EXTORSIVO,ECONÓMICA,,5.370332425,-75.409621766,377822,HOMBRE,,SIN INFORMACIÓN,CIVIL,,,,,LIBERADO,,FUGA,,0,,No_GAULA,Matched (3),03sep1999,1999m9,Fuga o Liberación,FARC,Desconocido,Andina,Desconocido,Individual,No Intervención,Hombre,Sin Dato,SALAMINA,0.0,Crisis/Caguán,0,,,,0,0,1,1
336424,,1999,9,11,68572,PUENTE NACIONAL,SANTANDER,PROVINCIA DE VELEZ,ASALTO,GUERRILLA,DISIDENCIA EPL,0,1,0,0,0,1,0,1,2,,,2,MÚLTIPLE,EXTORSIVO,ECONÓMICA,,5.831129906,-73.678418153,568296,HOMBRE,,SIN INFORMACIÓN,CIVIL,,,,,LIBERADO,,CANJE,1.0,0,,No_GAULA,Matched (3),11sep1999,1999m9,Pago,Delincuencia/Otro,Desconocido,Andina,Ataque Directo,Grupal,No Intervención,Hombre,Exprés (<=2d),PUENTE NACIONAL,0.69314718,Crisis/Caguán,1,0.0,1.0,0.0,0,0,1,1
336478,,1999,9,8,68296,GALAN,SANTANDER,SERRANIA DE LOS YARIGUIES,RUTA,GRUPO PARAMILITAR,AUTODEFENSAS UNIDAS DE COLOMBIA AUC,0,1,0,0,1,0,0,0,1,,,2,COLECTIVO,EXTORSIVO,ECONÓMICA,,6.671810994,-73.324671243,377910,HOMBRE,,CAMPESINO,CIVIL,,,,,LIBERADO,,FUGA,1.0,1,ADULTEZ (29-59 AÑOS),No_GAULA,Matched (3),08sep1999,1999m9,Fuga o Liberación,Paramilitares,Vulnerable,Andina,Retén (Azar),Grupal,No Intervención,Hombre,Exprés (<=2d),GALAN,0.69314718,Crisis/Caguán,1,0.0,1.0,0.0,0,0,1,1
336526,,1999,9,24,54498,OCAÑA,NORTE DE SANTANDER,CATATUMBO,CITACIÓN,GUERRILLA,DISIDENCIA EPL,0,0,0,0,0,0,0,0,0,,,1,INDIVIDUAL,EXTORSIVO,ECONÓMICA,,8.206637527,-73.337650332,377958,HOMBRE,,SIN INFORMACIÓN,CIVIL,,,,,LIBERADO,,PAGO,8.0,0,,No_GAULA,Matched (3),24sep1999,1999m9,Pago,Delincuencia/Otro,Desconocido,Pacífico/Roja,Engaño,Individual,No Intervención,Hombre,Corto (1m),OCAÑA,0.0,Crisis/Caguán,1,0.0,8.0,0.0,0,0,1,1
336575,,1999,10,2,19455,MIRANDA,CAUCA,NORTE DEL CAUCA,DESCONOCIDA,GRUPO ARMADO NO IDENTIFICADO,NO APLICA,0,0,0,0,0,0,0,0,0,,,1,INDIVIDUAL,EXTORSIVO,ECONÓMICA,,3.228235212,-76.216708274,378007,MUJER,,PERSONAL DE SALUD,CIVIL,,,,,LIBERADO,,RESCATE,,0,ADULTEZ (29-59 AÑOS),No_GAULA,Matched (3),02oct1999,1999m10,Rescate,Delincuencia/Otro,Clase Media,Pacífico/Roja,Desconocido,Individual,No Intervención,Mujer,Sin Dato,MIRANDA,0.0,Crisis/Caguán,0,,,,0,0,1,1
336670,,1999,10,16,76109,BUENAVENTURA,VALLE DEL CAUCA,ANDEN PACIFICO SUR,DESCONOCIDA,GUERRILLA,FARC,0,0,0,0,0,0,0,0,0,,,1,INDIVIDUAL,EXTORSIVO,ECONÓMICA,,3.493340766,-77.118728315,378102,HOMBRE,,SIN INFORMACIÓN,CIVIL,,,,,LIBERADO,,PAGO - POR PRESIÓN/INTERMEDIACIÓN,,0,,No_GAULA,Matched (3),16oct1999,1999m10,Pago,FARC,Desconocido,Pacífico/Roja,Desconocido,Individual,No Intervención,Hombre,Sin Dato,BUENAVENTURA,0.0,Crisis/Caguán,0,,,,0,0,1,1
336741,,1999,10,27,13654,SAN JACINTO,BOLIVAR,MONTES DE MARIA,DESCONOCIDA,DESCONOCIDO,NO APLICA,0,0,0,0,0,0,0,0,0,,,1,INDIVIDUAL,EXTORSIVO,ECONÓMICA,,9.835362011,-75.106092009,378173,HOMBRE,,ESTUDIANTE,CIVIL,,,,,LIBERADO,,PAGO,,0,JUVENTUD (18-28 AÑOS),No_GAULA,Matched (3),27oct1999,1999m10,Pago,Delincuencia/Otro,Clase Media,Caribe,Desconocido,Individual,No Intervención,Hombre,Sin Dato,SAN JACINTO,0.0,Crisis/Caguán,0,,,,0,0,1,1
336765,,1999,10,30,5686,SANTA ROSA DE OSOS,ANTIOQUIA,NORTE DE ANTIOQUIA,PESCA MILAGROSA,GUERRILLA,FARC,0,0,0,0,0,0,0,0,0,,,3,MÚLTIPLE,EXTORSIVO,ECONÓMICA,,6.675827825,-75.438143332,378197,HOMBRE,,SIN INFORMACIÓN,CIVIL,,,,,LIBERADO,,PAGO - POR PRESIÓN/INTERMEDIACIÓN,,0,,No_GAULA,Matched (3),30oct1999,1999m10,Pago,FARC,Desconocido,Andina,Retén (Azar),Grupal,No Intervención,Hombre,Sin Dato,SANTA ROSA DE OSOS,1.0986123,Crisis/Caguán,0,,,,0,0,1,1
336816,,1999,11,5,73001,IBAGUE,TOLIMA,NORTE DEL TOLIMA,ASALTO,GRUPO ARMADO NO IDENTIFICADO,NO APLICA,0,0,0,0,0,0,0,0,0,,,1,MÚLTIPLE,EXTORSIVO,ECONÓMICA,,4.451921427,-75.252590995,378248,MUJER,,SIN INFORMACIÓN,CIVIL,,,,,LIBERADO,,RESCATE,,0,INFANCIA (6-11 AÑOS),GAULA,Matched (3),05nov1999,1999m11,Rescate,Delincuencia/Otro,Desconocido,Andina,Ataque Directo,Grupal,Intervención GAULA,Mujer,Sin Dato,IBAGUE,0.0,Crisis/Caguán,0,,,,0,0,1,1
336917,CR000179,1999,11,20,70508,OVEJAS,SUCRE,MONTES DE MARIA,RETÉN,GUERRILLA,FARC/ELN,0,1,0,0,0,0,0,1,0,,ASESINATO SELECTIVO - DAÑO A BIEN CIVIL,4,COLECTIVO,EXTORSIVO,ECONÓMICA,,9.549655271,-75.188559161,536279,MUJER,,SIN INFORMACIÓN,CIVIL,,,,,LIBERADO,,PAGO,30.0,1,,No_GAULA,Matched (3),20nov1999,1999m11,Pago,ELN,Desconocido,Caribe,Retén (Azar),Grupal,No Intervención,Mujer,Corto (1m),OVEJAS,1.3862944,Crisis/Caguán,1,0.0,30.0,0.0,0,0,1,1
336917,CR000179,1999,11,20,70508,OVEJAS,SUCRE,MONTES DE MARIA,RETÉN,GUERRILLA,FARC/ELN,0,1,0,0,0,0,0,1,0,,ASESINATO SELECTIVO - DAÑO A BIEN CIVIL,4,COLECTIVO,EXTORSIVO,ECONÓMICA,,9.549655271,-75.188559161,378345,HOMBRE,,SIN INFORMACIÓN,CIVIL,,,,,LIBERADO,,PAGO,25.0,1,ADULTEZ (29-59 AÑOS),No_GAULA,Matched (3),20nov1999,1999m11,Pago,ELN,Desconocido,Caribe,Retén (Azar),Grupal,No Intervención,Hombre,Corto (1m),OVEJAS,1.3862944,Crisis/Caguán,1,0.0,25.0,0.0,0,0,1,1
336917,CR000179,1999,11,20,70508,OVEJAS,SUCRE,MONTES DE MARIA,RETÉN,GUERRILLA,FARC/ELN,0,1,0,0,0,0,0,1,0,,ASESINATO SELECTIVO - DAÑO A BIEN CIVIL,4,COLECTIVO,EXTORSIVO,ECONÓMICA,,9.549655271,-75.188559161,378349,MUJER,,SIN INFORMACIÓN,CIVIL,,,,,LIBERADO,,PAGO,8.0,1,,No_GAULA,Matched (3),20nov1999,1999m11,Pago,ELN,Desconocido,Caribe,Retén (Azar),Grupal,No Intervención,Mujer,Corto (1m),OVEJAS,1.3862944,Crisis/Caguán,1,0.0,8.0,0.0,0,0,1,1
336917,CR000179,1999,11,20,70508,OVEJAS,SUCRE,MONTES DE MARIA,RETÉN,GUERRILLA,FARC/ELN,0,1,0,0,0,0,0,1,0,,ASESINATO SELECTIVO - DAÑO A BIEN CIVIL,4,COLECTIVO,EXTORSIVO,ECONÓMICA,,9.549655271,-75.188559161,536278,HOMBRE,,SIN INFORMACIÓN,CIVIL,,,,,LIBERADO,,PAGO,25.0,1,,No_GAULA,Matched (3),20nov1999,1999m11,Pago,ELN,Desconocido,Caribe,Retén (Azar),Grupal,No Intervención,Hombre,Corto (1m),OVEJAS,1.3862944,Crisis/Caguán,1,0.0,25.0,0.0,0,0,1,1
337136,,1999,12,22,13244,EL CARMEN DE BOLIVAR,BOLIVAR,MONTES DE MARIA,RETÉN,GUERRILLA,ELN/ERP,0,0,0,0,0,0,0,0,0,,,1,INDIVIDUAL,EXTORSIVO,ECONÓMICA,,9.699819876,-75.157935726,378568,HOMBRE,,EMPLEADO,CIVIL,,,,,LIBERADO,,PAGO,3.0,1,ADULTEZ (29-59 AÑOS),No_GAULA,Matched (3),22dec1999,1999m12,Pago,ELN,Clase Media,Caribe,Retén (Azar),Individual,No Intervención,Hombre,Corto (1m),EL CARMEN DE BOLIVAR,0.0,Crisis/Caguán,1,0.0,3.0,0.0,0,0,1,1
337158,,1999,12,23,54344,HACARI,NORTE DE SANTANDER,CATATUMBO,INTERCEPTACIÓN,GUERRILLA,DISIDENCIA EPL,0,0,0,0,0,0,0,0,0,,,1,INDIVIDUAL,EXTORSIVO,ND,,8.361831987,-73.078263298,378590,MUJER,,EMPLEADO,CIVIL,,,,,LIBERADO,,POR PRESIÓN/INTERMEDIACIÓN,92.0,1,ADULTEZ (29-59 AÑOS),No_GAULA,Matched (3),23dec1999,1999m12,Fuga o Liberación,Delincuencia/Otro,Clase Media,Pacífico/Roja,Ataque Directo,Individual,No Intervención,Mujer,Largo (>1m),HACARI,0.0,Crisis/Caguán,1,0.0,92.0,0.0,0,0,1,1
337275,,2000,1,7,5001,MEDELLIN,ANTIOQUIA,VALLE DE ABURRA,INTERCEPTACIÓN,GUERRILLA,FARC,0,0,0,0,0,0,0,0,0,,,1,INDIVIDUAL,EXTORSIVO,ECONÓMICA,,6.257590259,-75.611031065,378707,HOMBRE,,PROFESIONAL,CIVIL,,,,,LIBERADO,,RESCATE,,0,,GAULA,Matched (3),07jan2000,2000m1,Rescate,FARC,Clase Media,Metrópolis,Ataque Directo,Individual,Intervención GAULA,Hombre,Sin Dato,MEDELLIN,0.0,Crisis/Caguán,0,,,,0,0,1,1
337306,,2000,1,12,68547,PIEDECUESTA,SANTANDER,PROVINCIA DE SOTO,DESCONOCIDA,GUERRILLA,ELN,0,0,0,0,0,0,0,0,0,,,1,INDIVIDUAL,EXTORSIVO,ECONÓMICA,,6.97082104,-73.014811964,378738,HOMBRE,,COMERCIANTE,CIVIL,,,,,LIBERADO,,PAGO - POR PRESIÓN/INTERMEDIACIÓN,,0,,No_GAULA,Matched (3),12jan2000,2000m1,Pago,ELN,Alto ($$$),Andina,Desconocido,Individual,No Intervención,Hombre,Sin Dato,PIEDECUESTA,0.0,Crisis/Caguán,0,,,,0,0,1,1
337365,,2000,1,22,25181,CHOACHI,CUNDINAMARCA,ALTIPLANO CUNDIBOYACENSE,ASALTO,GUERRILLA,FARC,0,0,0,0,0,0,0,0,0,,,1,INDIVIDUAL,EXTORSIVO,ECONÓMICA,,4.578183896,-73.952900544,378797,HOMBRE,,PROFESIONAL,CIVIL,PERIODISTA O COMUNICADOR SOCIAL,,,,LIBERADO,,RESCATE,,0,,No_GAULA,Matched (3),22jan2000,2000m1,Rescate,FARC,Clase Media,Andina,Ataque Directo,Individual,No Intervención,Hombre,Sin Dato,CHOACHI,0.0,Crisis/Caguán,0,,,,0,0,1,1
337403,,2000,1,26,17001,MANIZALES,CALDAS,EJE CAFETERO,DESCONOCIDA,GUERRILLA,ELN,0,0,0,0,0,0,0,0,0,,,1,INDIVIDUAL,EXTORSIVO,ECONÓMICA,,5.08343301,-75.50727881,378835,HOMBRE,,SIN INFORMACIÓN,CIVIL,,,,,LIBERADO,,RESCATE,,0,,GAULA,Matched (3),26jan2000,2000m1,Rescate,ELN,Desconocido,Metrópolis,Desconocido,Individual,Intervención GAULA,Hombre,Sin Dato,MANIZALES,0.0,Crisis/Caguán,0,,,,0,0,1,1
337427,,2000,1,28,19698,SANTANDER DE QUILICHAO,CAUCA,NORTE DEL CAUCA,RETÉN,GUERRILLA,FARC,0,0,0,0,0,0,0,0,0,,,1,INDIVIDUAL,EXTORSIVO,ECONÓMICA,,2.984467338,-76.498731453,378859,HOMBRE,,SIN INFORMACIÓN,CIVIL,,,,,LIBERADO,,RESCATE,,0,,No_GAULA,Matched (3),28jan2000,2000m1,Rescate,FARC,Desconocido,Pacífico/Roja,Retén (Azar),Individual,No Intervención,Hombre,Sin Dato,SANTANDER DE QUILICHAO,0.0,Crisis/Caguán,0,,,,0,0,1,1
337575,,2000,2,12,5001,MEDELLIN,ANTIOQUIA,VALLE DE ABURRA,DESCONOCIDA,GUERRILLA,ELN,0,0,0,0,0,0,0,0,0,,,1,INDIVIDUAL,EXTORSIVO,ECONÓMICA,,6.257590259,-75.611031065,379007,HOMBRE,,FUERZA PÚBLICA,COMBATIENTE,,,AGENTE DEL ESTADO,NO IDENTIFICADO,LIBERADO,,RESCATE,,0,,GAULA,Matched (3),12feb2000,2000m2,Rescate,ELN,Sector Público,Metrópolis,Desconocido,Individual,Intervención GAULA,Hombre,Sin Dato,MEDELLIN,0.0,Crisis/Caguán,0,,,,0,0,1,1
337614,,2000,2,14,54003,ABREGO,NORTE DE SANTANDER,PROVINCIA DE RICAURTE,RETÉN,GUERRILLA,DISIDENCIA EPL,0,0,0,0,0,0,0,0,0,,,1,INDIVIDUAL,EXTORSIVO,ECONÓMICA,,8.019834481,-73.158504846,379046,HOMBRE,,SIN INFORMACIÓN,CIVIL,,,,,LIBERADO,,RESCATE,,0,,No_GAULA,Matched (3),14feb2000,2000m2,Rescate,Delincuencia/Otro,Desconocido,Pacífico/Roja,Retén (Azar),Individual,No Intervención,Hombre,Sin Dato,ABREGO,0.0,Crisis/Caguán,0,,,,0,0,1,1
337615,,2000,2,14,54720,SARDINATA,NORTE DE SANTANDER,CATATUMBO,DESCONOCIDA,GUERRILLA,DISIDENCIA EPL,0,0,0,0,0,0,0,0,0,,,1,INDIVIDUAL,EXTORSIVO,ECONÓMICA,,8.215080767,-72.795809609,379047,HOMBRE,,SIN INFORMACIÓN,CIVIL,,,,,LIBERADO,,RESCATE,,0,,No_GAULA,Matched (3),14feb2000,2000m2,Rescate,Delincuencia/Otro,Desconocido,Pacífico/Roja,Desconocido,Individual,No Intervención,Hombre,Sin Dato,SARDINATA,0.0,Crisis/Caguán,0,,,,0,0,1,1
337625,,2000,2,15,85001,YOPAL,CASANARE,PIEDEMONTE LLANERO,DESCONOCIDA,GUERRILLA,FARC,0,0,0,0,0,0,0,0,0,,,1,INDIVIDUAL,EXTORSIVO,ECONÓMICA,,5.242744761,-72.25802857,379057,MUJER,,AMA DE CASA,CIVIL,,,,,LIBERADO,,RESCATE,,0,,GAULA,Matched (3),15feb2000,2000m2,Rescate,FARC,Vulnerable,Oriente/Selva,Desconocido,Individual,Intervención GAULA,Mujer,Sin Dato,YOPAL,0.0,Crisis/Caguán,0,,,,0,0,1,1
337681,,2000,2,24,20011,AGUACHICA,CESAR,MAGDALENA MEDIO,DESCONOCIDA,GUERRILLA,ELN,0,0,0,0,0,0,0,0,0,,,1,INDIVIDUAL,EXTORSIVO,ECONÓMICA,,8.309986,-73.599399,379113,HOMBRE,,PROFESIONAL,CIVIL,FUNCIONARIO JUDICIAL,,,,LIBERADO,,PAGO,,1,,No_GAULA,Matched (3),24feb2000,2000m2,Pago,ELN,Clase Media,Caribe,Desconocido,Individual,No Intervención,Hombre,Sin Dato,AGUACHICA,0.0,Crisis/Caguán,0,,,,0,0,1,1
337691,,2000,2,25,86865,VALLE DEL GUAMUEZ,PUTUMAYO,BAJO PUTUMAYO,DESCONOCIDA,GUERRILLA,FARC,0,0,0,0,0,0,0,0,0,,,1,INDIVIDUAL,EXTORSIVO,ECONÓMICA,,0.42012589,-76.770670262,379123,HOMBRE,,EMPLEADO,CIVIL,,,,,LIBERADO,,RESCATE,,0,,No_GAULA,Matched (3),25feb2000,2000m2,Rescate,FARC,Clase Media,Oriente/Selva,Desconocido,Individual,No Intervención,Hombre,Sin Dato,VALLE DEL GUAMUEZ,0.0,Crisis/Caguán,0,,,,0,0,1,1
337692,,2000,2,25,86865,VALLE DEL GUAMUEZ,PUTUMAYO,BAJO PUTUMAYO,DESCONOCIDA,GUERRILLA,FARC,0,0,0,0,0,0,0,0,0,,,1,INDIVIDUAL,EXTORSIVO,ECONÓMICA,,0.42012589,-76.770670262,379124,HOMBRE,,EMPLEADO,CIVIL,,,,,LIBERADO,,RESCATE,,0,,No_GAULA,Matched (3),25feb2000,2000m2,Rescate,FARC,Clase Media,Oriente/Selva,Desconocido,Individual,No Intervención,Hombre,Sin Dato,VALLE DEL GUAMUEZ,0.0,Crisis/Caguán,0,,,,0,0,1,1
337693,,2000,2,25,86865,VALLE DEL GUAMUEZ,PUTUMAYO,BAJO PUTUMAYO,DESCONOCIDA,GUERRILLA,FARC,0,0,0,0,0,0,0,0,0,,,1,INDIVIDUAL,EXTORSIVO,ECONÓMICA,,0.42012589,-76.770670262,379125,HOMBRE,,EMPLEADO,CIVIL,,,,,LIBERADO,,RESCATE,,0,,No_GAULA,Matched (3),25feb2000,2000m2,Rescate,FARC,Clase Media,Oriente/Selva,Desconocido,Individual,No Intervención,Hombre,Sin Dato,VALLE DEL GUAMUEZ,0.0,Crisis/Caguán,0,,,,0,0,1,1
337694,,2000,2,25,86865,VALLE DEL GUAMUEZ,PUTUMAYO,BAJO PUTUMAYO,DESCONOCIDA,GUERRILLA,FARC,0,0,0,0,0,0,0,0,0,,,1,INDIVIDUAL,EXTORSIVO,ECONÓMICA,,0.42012589,-76.770670262,379126,HOMBRE,,EMPLEADO,CIVIL,,,,,LIBERADO,,RESCATE,,0,,No_GAULA,Matched (3),25feb2000,2000m2,Rescate,FARC,Clase Media,Oriente/Selva,Desconocido,Individual,No Intervención,Hombre,Sin Dato,VALLE DEL GUAMUEZ,0.0,Crisis/Caguán,0,,,,0,0,1,1
337695,,2000,2,25,86865,VALLE DEL GUAMUEZ,PUTUMAYO,BAJO PUTUMAYO,DESCONOCIDA,GUERRILLA,FARC,0,0,0,0,0,0,0,0,0,,,1,INDIVIDUAL,EXTORSIVO,ECONÓMICA,,0.42012589,-76.770670262,379127,HOMBRE,,EMPLEADO,CIVIL,,,,,LIBERADO,,RESCATE,,0,,No_GAULA,Matched (3),25feb2000,2000m2,Rescate,FARC,Clase Media,Oriente/Selva,Desconocido,Individual,No Intervención,Hombre,Sin Dato,VALLE DEL GUAMUEZ,0.0,Crisis/Caguán,0,,,,0,0,1,1
